     3.04           OBSERVATION DATA    G                   RINEX VERSION / TYPE
cnvtToRINEX 3.08.0  convertToRINEX OPR  29-Jul-19 18:08 UTC PGM / RUN BY / DATE 
gfzrnx-1.11-7513    FILE MERGE          20190804 163506 UTC COMMENT             
JAB1                                                        MARKER NAME         
  4035921.4204  1285355.7843  4752936.8469                  APPROX POSITION XYZ 
JAB1                                                        MARKER NUMBER       
----------------------------------------------------------- COMMENT             
        0.0000        0.0000        0.0000                  ANTENNA: DELTA H/E/N
DBHZ                                                        SIGNAL STRENGTH UNIT
spanikp             SUT                                     OBSERVER / AGENCY   
    18                                                      LEAP SECONDS        
12118048            TRM57971.00     NONE                    ANT # / TYPE        
     0                                                      RCV CLOCK OFFS APPL 
G L2X -0.25000                                              SYS / PHASE SHIFT   
5448R50048          TRIMBLE NETR9       5.37                REC # / TYPE / VERS 
GEODETIC                                                    MARKER TYPE         
G   12 C1C C2W C2X C5X L1C L2W L2X L5X S1C S2W S2X S5X      SYS / # / OBS TYPES 
    30.000                                                  INTERVAL            
  2019     3    21    12     0    0.0000000     GPS         TIME OF FIRST OBS   
  2019     3    21    12    15    0.0000000     GPS         TIME OF LAST OBS    
                                                            END OF HEADER      
> 2019 03 21 12 00 00.0000000  0 10
G06  25083226.133 6                  25083235.332 6  25083236.234 6 131813231.844 6                 102711617.190 6  98431965.323 6        38.800                          37.300          41.300
G10  24493169.000 6  24493175.922 4  24493175.066 6  24493174.031 7 128712465.729 6 100295458.132 4 100295460.141 6  96116475.369 7        41.600          25.600          40.000          43.100
G12  21469073.945 8  21469077.746 6  21469077.867 7                 112820743.022 8  87912283.170 6  87912284.180 7                        49.300          36.300          42.000
G13  23937572.820 6  23937577.551 3                                 125792790.486 6  98020377.749 3                                        40.400          21.500
G15  22489384.586 7  22489388.941 5  22489388.762 6                 118182511.560 7  92090287.385 5  92090289.382 6                        47.800          33.500          41.700
G17  22360544.820 8  22360548.395 5  22360548.340 7                 117505451.880 8  91562706.506 5  91562707.493 7                        49.700          35.700          42.200
G19  21060462.703 8  21060464.664 6                                 110673476.750 8  86239080.560 6                                        48.500          38.100
G20  25141423.055 6                                                 132119059.199 6                                                        39.500
G24  20243049.484 8  20243055.453 7  20243055.578 8  20243055.988 9 106377941.101 8  82891926.559 7  82891928.563 8  79438098.352 9        51.000          43.400          48.300          55.300
G25  24849165.078 6                                                                                                                        37.300
> 2019 03 21 12 00 30.0000000  0 11
G06  25065874.844 6  25065883.672 3  25065884.105 6  25065884.383 6 131722049.033 6 102640601.696 3 102640565.708 6  98363874.304 6        39.100          22.800          37.800          41.100
G10  24500480.867 6  24500488.219 4  24500487.875 6  24500486.547 7 128750892.616 6 100325401.133 4 100325403.181 6  96145170.757 7        40.600          25.300          40.200          43.100
G12  21454684.078 8  21454688.340 6  21454688.551 7                 112745125.924 8  87853360.793 6  87853361.797 7                        49.900          36.700          43.600
G13  23959611.211 6  23959616.168 3                                 125908603.025 6  98110621.225 3                                        41.000          22.300
G15  22506947.922 8  22506952.813 5  22506953.000 7                 118274809.978 8  92162208.193 5  92162210.209 7                        48.500          33.600          42.800
G17  22370184.125 8  22370188.141 5  22370188.234 7                 117556108.788 8  91602179.427 5  91602180.420 7                        48.800          34.500          43.000
G19  21059397.227 8  21059399.473 6                                 110667879.474 8  86234719.046 6                                        48.200          38.300
G20  25155510.086 6                                                 132193088.475 6                                                        37.300
G24  20239708.805 8  20239715.191 7  20239715.273 8  20239715.594 9 106360387.500 8  82878248.436 7  82878250.441 8  79424990.149 9        51.400          43.500          48.300          55.200
G25  24829206.055 6  24829214.805 3  24829214.871 6  24829215.320 6 130478387.975 6 101671484.391 3 101671447.418 6  97435136.305 6        36.300          18.600          36.200          40.500
G28  25150745.156 5  25150751.953 2                                 132168057.197 5 102988122.173 2                                        31.600          16.300
> 2019 03 21 12 01 00.0000000  0 12
G06  25048547.406 6  25048555.961 3  25048556.637 6  25048557.230 6 131630994.655 6 102569650.260 3 102569614.243 6  98295879.194 6        39.000          21.800          37.600          41.100
G10  24507893.734 6  24507900.578 3  24507900.395 6  24507898.770 7 128789846.431 6 100355754.720 3 100355756.729 6  96174259.578 7        40.400          22.500          39.900          42.600
G12  21440369.031 8  21440373.117 6  21440373.340 7                 112669898.694 8  87794742.196 6  87794743.199 7                        48.700          36.200          43.000
G13  23981682.031 6  23981687.086 3                                 126024586.636 6  98200997.979 3                                        41.000          22.600
G15  22524580.273 8  22524584.492 5  22524584.754 6                 118367466.035 8  92234407.686 5  92234409.695 6                        48.300          33.600          41.200
G17  22379925.250 8  22379929.168 5  22379928.945 6                 117607297.768 8  91642066.941 5  91642067.944 6                        49.800          35.100          41.600
G19  21058470.719 8  21058473.277 6                                 110663012.381 8  86230926.508 6                                        48.000          38.300
G20  25169648.031 5                                                 132267380.462 5                                                        35.300
G24  20236461.430 8  20236467.887 7  20236467.875 8  20236468.262 9 106343322.973 8  82864951.397 7  82864953.416 8  79412247.163 9        50.000          43.400          48.400          55.300
G25  24809278.523 5  24809287.523 3  24809287.875 6  24809287.773 6 130373669.418 5 101589885.498 3 101589848.518 6  97356937.364 6        35.000          18.600          37.300          40.000
G28  25168059.484 5  25168065.281 2                                 132259045.547 5 103059022.060 2                                        33.700          16.900
G32  25501362.008 5                  25501370.883 5  25501368.961 6                                 104423821.95915 100072829.954 6        32.000                          31.200          36.000
> 2019 03 21 12 01 30.0000000  0 12
G06  25031272.375 6  25031280.840 3  25031281.063 6  25031282.348 7 131540212.527 6 102498911.018 3 102498875.015 6  98228087.418 7        38.900          22.200          37.900          42.100
G10  24515432.836 6  24515440.488 3  24515439.895 6  24515438.492 7 128829465.966 6 100386627.035 3 100386629.047 6  96203845.550 7        40.800          22.900          40.300          42.600
G12  21426154.906 8  21426158.660 6  21426158.930 7                 112595203.007 8  87736537.800 6  87736538.805 7                        48.600          36.700          43.400
G13  24003811.914 6  24003817.102 3                                 126140879.599 6  98291615.830 3                                        41.700          22.200
G15  22542306.516 8  22542310.859 5  22542311.184 7                 118460617.632 8  92306993.313 5  92306995.325 7                        48.900          33.400          42.200
G17  22389794.188 8  22389797.629 5  22389797.891 7                 117659157.712 8  91682477.295 5  91682478.292 7                        49.600          35.200          42.600
G19  21057711.117 8  21057712.855 6                                 110659016.368 8  86227812.742 6                                        48.900          38.100
G20  25183860.500 5                                                                                                                        32.500
G24  20233334.375 8  20233340.594 7  20233341.117 8  20233341.035 9 106326888.998 8  82852145.715 7  82852147.726 8  79399975.044 9        50.000          43.700          48.500          55.300
G25  24789408.359 5  24789417.723 3  24789417.723 6  24789418.352 6 130269253.691 5 101508522.664 3 101508485.690 6  97278964.634 6        34.500          19.000          38.100          40.800
G28  25185407.438 6  25185412.043 3                                 132350204.783 6 103130055.175 3                                        36.900          19.000
G32  25481855.891 5                                  25481860.836 5 133908071.338 5                                  99996276.992 5        35.600                                          34.100
> 2019 03 21 12 02 00.0000000  0 11
G06  25013920.289 6  25013928.820 3  25013929.227 6  25013930.188 7 131449027.835 6 102427858.090 3 102427822.109 6  98159995.058 7        38.600          22.300          38.300          42.000
G10  24522969.383 6  24522976.934 4  24522976.883 6  24522975.293 7 128869071.477 6 100417488.443 4 100417490.443 6  96233421.053 7        40.900          24.000          39.900          42.500
G12  21411913.133 8  21411917.098 6  21411917.527 7                 112520362.704 8  87678220.703 6  87678221.708 7                        49.800          37.000          44.000
G13  24025871.367 6  24025876.730 3                                 126256802.103 6  98381944.978 3                                        41.100          22.800
G15  22559997.617 8  22560001.770 5  22560001.926 7                 118553584.502 8  92379434.995 5  92379437.007 7                        48.800          33.600          42.000
G17  22399660.859 8  22399664.855 5  22399664.488 7                 117711009.480 8  91722881.269 5  91722882.277 7                        49.000          35.000          42.700
G19  21056987.422 7  21056989.379 6                                 110655214.277 7  86224850.077 6                                        47.600          38.100
G24  20230198.484 8  20230204.531 7  20230204.813 8  20230204.969 9 106310409.196 8  82839304.310 7  82839306.321 8  79387668.709 9        51.500          43.900          48.900          55.300
G25  24769467.617 5  24769477.309 2  24769477.188 6  24769477.375 6 130164464.056 5 101426868.455 2 101426831.460 6  97200712.709 6        35.200          16.900          38.000          41.600
G28  25202657.320 5  25202662.453 2                                 132440856.459 5 103200692.850 2                                        35.700          15.600
G32  25462290.680 6                                  25462298.414 5 133805258.085 6                                  99919500.817 5        37.400                                          33.300
> 2019 03 21 12 02 30.0000000  0 11
G06  24996633.734 6  24996643.102 3  24996643.422 6  24996644.340 7 131358191.378 6 102357076.532 3 102357040.543 6  98092162.773 7        37.700          21.100          38.700          42.300
G10  24530645.813 6  24530652.941 3  24530652.371 6  24530651.152 7 128909408.357 6 100448919.727 3 100448921.734 6  96263542.721 7        39.900          22.800          39.600          42.900
G12  21397786.352 8  21397790.281 6  21397790.707 7                 112446125.356 8  87620373.452 6  87620374.455 7                        49.600          36.100          43.700
G13  24048001.969 6  24048006.996 3                                 126373098.827 6  98472565.724 3                                        40.600          21.700
G15  22577795.125 8  22577799.660 5  22577799.613 7                 118647111.453 8  92452313.105 5  92452315.096 7                        48.500          33.600          42.500
G17  22409668.570 8  22409672.266 5  22409672.328 7                 117763598.574 8  91763859.783 5  91763860.786 7                        50.000          35.000          43.100
G19  21056443.016 8  21056444.844 6                                 110652353.163 8  86222620.647 6                                        48.300          38.400
G24  20227195.945 8  20227202.234 7  20227202.273 8  20227202.633 9 106294631.658 8  82827010.136 7  82827012.148 8  79375886.788 9        51.400          43.900          48.900          55.300
G25  24749598.875 6  24749606.965 3  24749607.941 6  24749608.098 7 130060049.221 6 101345506.301 3 101345469.307 6  97122740.640 7        36.400          19.300          38.900          42.100
G28  25219954.117 5  25219958.008 2                                 132531747.148 5 103271516.711 2                                        35.200          17.800
G32  25442811.188 6                  25442820.449 5  25442817.141 5 133702896.205 6                 104184051.846 5  99843061.711 5        36.500                          31.400          33.100
> 2019 03 21 12 03 00.0000000  0 11
G06  24979365.297 6  24979374.348 3  24979373.688 6  24979374.793 7 131267440.415 6 102286361.584 3 102286325.616 6  98024394.313 7        37.600          21.100          38.700          42.800
G10  24538410.008 6  24538416.641 3  24538415.930 6  24538415.379 7 128950208.930 6 100480712.348 3 100480714.354 6  96294010.602 7        40.500          22.900          39.000          42.500
G12  21383723.445 8  21383727.695 6  21383727.855 7                 112372226.333 8  87562789.826 6  87562790.823 7                        48.500          36.300          42.500
G13  24070152.164 6  24070157.652 3                                 126489501.992 6  98563269.422 3                                        40.500          22.500
G15  22595648.461 8  22595652.750 5  22595652.875 6                 118740930.355 8  92525418.709 5  92525420.698 6                        48.200          32.900          41.100
G17  22419765.102 8  22419768.766 5  22419769.063 6                 117816656.933 8  91805203.951 5  91805204.959 6                        49.100          34.100          41.900
G19  21056027.281 7  21056028.965 6                                 110650167.363 7  86220917.437 6                                        47.800          37.900
G24  20224276.727 8  20224283.055 7  20224283.137 8  20224283.395 9 106279291.013 8  82815056.389 7  82815058.401 8  79364431.117 9        51.000          43.500          48.700          55.200
G25  24729749.539 5  24729758.422 3  24729758.559 6  24729759.188 6 129955744.366 5 101264229.850 3 101264192.917 6  97044850.752 6        35.500          19.300          38.400          41.900
G28  25237244.336 6  25237249.238 3                                 132622610.301 6 103342319.095 3                                        37.400          19.300
G32  25423367.953 6  25423375.203 2                  25423375.074 5 133600722.347 6 104104469.823 2                  99766763.085 5        37.700          16.900                          33.400
> 2019 03 21 12 03 30.0000000  0 11
G06  24962112.727 5  24962120.969 3  24962121.387 6  24962122.434 7 131176778.514 5 102215716.092 3 102215680.069 6  97956692.361 7        35.500          19.900          38.800          42.800
G10  24546262.266 6  24546269.215 3  24546268.688 6  24546267.043 7 128991471.424 6 100512864.912 3 100512866.916 6  96324823.464 7        41.100          22.600          39.200          42.500
G12  21369725.852 8  21369729.824 6  21369730.074 7                 112298666.933 8  87505470.835 6  87505471.832 7                        50.000          36.800          42.800
G13  24092323.414 6  24092328.563 3                                 126606009.042 6  98654054.057 3                                        40.700          21.800
G15  22613556.203 8  22613560.969 5  22613560.602 6                 118835038.633 8  92598749.800 5  92598751.809 6                        48.100          32.700          41.200
G17  22429951.156 8  22429954.609 5  22429954.574 7                 117870183.427 8  91846912.902 5  91846913.903 7                        49.200          34.900          42.100
G19  21055740.094 8  21055741.496 6                                 110648657.441 8  86219740.887 6                                        49.100          38.100
G24  20221441.055 8  20221447.129 7  20221447.320 8  20221447.625 9 106264389.107 8  82803444.518 7  82803446.523 8  79353303.070 9        51.100          43.600          48.500          55.200
G25  24709922.305 5  24709931.117 3  24709931.262 6  24709932.207 7 129851551.234 5 101183040.521 3 101183003.494 6  96967044.229 7        35.500          19.600          37.900          42.700
G28  25254529.750 6  25254534.199 3                                 132713445.566 6 103413099.806 3                                        38.900          18.600
G32  25403961.430 6  25403968.066 2  25403968.984 5  25403967.875 5 133498739.769 6 104025002.827 2 104024970.859 5  99690607.219 5        37.700          17.800          33.900          35.000
> 2019 03 21 12 04 00.0000000  0 11
G06  24944877.250 6  24944886.883 3  24944886.559 6  24944888.141 7 131086210.227 6 102145143.501 3 102145107.519 6  97889060.337 7        36.800          20.400          38.900          43.100
G10  24554200.563 6  24554209.070 3  24554208.613 6  24554206.406 7 129033195.423 6 100545377.076 3 100545379.072 6  96355980.953 7        39.200          22.500          40.200          42.100
G12  21355792.453 8  21355797.035 6  21355797.445 7                 112225449.527 8  87448418.347 6  87448419.336 7                        48.800          37.100          42.800
G13  24114514.164 6  24114518.766 3                                 126722619.282 6  98744919.112 3                                        41.200          22.900
G15  22631519.133 7  22631523.902 5  22631523.906 7                 118929434.979 7  92672305.362 5  92672307.371 7                        47.800          32.800          42.100
G17  22440225.539 8  22440229.414 5  22440229.387 7                 117924177.372 8  91888986.117 5  91888987.114 7                        48.600          34.800          42.400
G19  21055580.281 8  21055583.203 6                                 110647824.584 8  86219091.926 6                                        48.400          37.900
G24  20218689.023 8  20218695.480 7  20218695.691 8  20218695.820 9 106249928.335 8  82792176.392 7  82792178.389 8  79342504.432 9        50.700          43.400          48.600          55.300
G25  24690116.938 6  24690125.238 3  24690125.543 6  24690126.707 7 129747472.109 6 101101940.022 3 101101903.009 6  96889322.967 7        36.700          19.900          38.600          42.800
G28  25271809.914 6  25271814.211 3                                 132804253.396 6 103483859.106 3                                        39.000          18.300
G32  25384592.070 6  25384599.125 3  25384599.574 5  25384598.168 6 133396952.402 6 103945688.059 3 103945656.063 5  99614597.161 6        37.300          18.300          35.500          37.100
> 2019 03 21 12 04 30.0000000  0 11
G06  24927661.148 6  24927670.707 3  24927671.113 6  24927671.434 7 130995739.489 6 102074646.932 3 102074610.926 6  97821501.131 7        36.600          21.800          40.200          44.100
G10  24562229.148 6  24562236.203 3  24562236.180 6  24562235.184 7 129075379.582 6 100578247.797 3 100578249.804 6  96387482.065 7        40.200          22.500          40.200          42.800
G12  21341925.813 8  21341929.520 6  21341930.047 7                 112152576.430 8  87391634.126 6  87391635.137 7                        49.600          37.300          44.300
G13  24136723.102 6  24136728.551 3                                 126839331.335 6  98835863.489 3                                        40.800          22.600
G15  22649537.063 7  22649541.535 5  22649541.523 7                 119024118.192 7  92746084.453 5  92746086.440 7                        47.700          32.800          42.200
G17  22450589.078 8  22450592.863 5  22450592.996 7                 117978637.935 8  91931422.909 5  91931423.902 7                        49.500          35.300          42.800
G19  21055551.680 8  21055553.699 6                                 110647669.742 8  86218971.283 6                                        48.800          38.700
G24  20216021.617 8  20216027.898 7  20216028.066 8  20216028.262 9 106235910.236 8  82781253.194 7  82781255.190 8  79332036.381 9        51.800          43.800          49.300          55.400
G25  24670333.367 6  24670341.793 3  24670342.547 6  24670342.828 7 129643509.046 6 101020929.925 3 101020892.921 6  96811688.315 7        36.300          19.900          38.500          43.600
G28  25289084.789 6  25289089.730 3                                 132895033.918 6 103554597.123 3                                        38.900          18.300
G32  25365260.391 6  25365267.996 3  25365267.797 5  25365266.469 6 133295363.660 6 103866528.003 3 103866496.039 5  99538735.460 6        39.200          19.300          35.600          38.300
> 2019 03 21 12 05 00.0000000  0 11
G06  24910465.023 5  24910472.824 3  24910473.477 6  24910474.199 7 130905367.098 5 102004226.988 3 102004191.005 6  97754015.373 7        35.100          20.100          39.400          43.200
G10  24570343.930 6  24570350.727 3  24570350.355 6  24570348.914 7 129118019.500 6 100611473.664 3 100611475.705 6  96419323.527 7        39.400          21.700          39.600          42.800
G12  21328123.305 8  21328127.402 6  21328127.434 7                 112080045.780 8  87335116.763 6  87335117.768 7                        49.800          36.700          43.000
G13  24158951.758 6  24158956.535 3                                 126956140.268 6  98926883.342 3                                        40.700          22.200
G15  22667608.609 8  22667612.965 5  22667612.582 7                 119119082.762 8  92820082.775 5  92820084.775 7                        48.500          32.800          42.200
G17  22461040.633 8  22461044.359 5  22461044.188 7                 118033560.851 8  91974219.986 5  91974220.996 7                        48.800          35.000          42.900
G19  21055650.859 8  21055652.617 6                                 110648190.034 8  86219376.722 6                                        48.400          38.200
G24  20213437.773 8  20213444.156 7  20213444.086 8  20213444.559 9 106222332.868 8  82770673.422 7  82770675.427 8  79321897.445 9        51.700          43.500          48.600          55.300
G25  24650571.422 6  24650580.055 3  24650580.605 6  24650580.805 7 129539660.721 6 100940009.258 3 100939972.298 6  96734139.410 7        36.200          21.300          39.300          43.400
G28  25306354.063 6  25306358.406 2                                 132985784.083 6 103625311.553 2                                        39.700          17.800
G32  25345967.203 6  25345973.125 3  25345974.438 6  25345972.137 6 133193973.936 6 103787522.996 3 103787490.978 6  99463022.334 6        38.000          19.300          36.500          38.600
> 2019 03 21 12 05 30.0000000  0 12
G01  25469908.516 5                  25469915.738 6  25469914.820 7                                 104295022.67816  99949396.627 7        31.900                          36.800          42.000
G06  24893286.398 6  24893295.313 3  24893295.324 6  24893296.203 7 130815095.535 6 101933885.600 3 101933849.621 6  97686604.906 7        36.000          19.600          39.900          43.900
G10  24578543.383 6  24578550.973 3  24578551.176 6  24578548.688 7 129161112.488 6 100645052.566 3 100645054.573 6  96451503.281 7        38.100          21.800          40.100          42.000
G12  21314386.805 8  21314390.422 6  21314390.711 7                 112007857.766 8  87278866.395 6  87278867.383 7                        49.500          37.600          44.500
G13  24181196.977 6  24181202.609 3                                 127073042.735 6  99017976.098 3                                        40.800          21.800
G15  22685732.180 7  22685737.063 5  22685737.148 7                 119214325.594 7  92894297.931 5  92894299.927 7                        47.500          32.300          42.300
G17  22471579.695 8  22471583.254 5  22471583.441 7                 118088943.556 8  92017375.343 5  92017376.330 7                        49.200          34.400          42.700
G19  21055878.258 8  21055880.133 6                                 110649385.095 8  86220307.960 6                                        48.000          38.300
G24  20210938.570 8  20210944.527 7  20210944.879 8  20210944.945 9 106209197.211 8  82760437.848 7  82760439.868 8  79312088.351 9        51.100          43.900          49.300          55.300
G25  24630832.648 6  24630840.430 3  24630840.527 6  24630840.961 7 129435927.545 6 100859178.376 3 100859141.393 6  96656676.490 7        37.700          22.800          38.900          43.800
G28  25323617.977 6  25323621.730 2                                 133076502.421 6 103696001.099 2                                        39.600          16.900
G32  25326711.367 6  25326718.328 3  25326718.574 6  25326717.227 6 133092785.129 6 103708674.566 3 103708642.575 6  99387459.281 6        38.500          21.100          38.100          39.900
> 2019 03 21 12 06 00.0000000  0 12
G01  25479468.266 4  25479475.031 2  25479474.695 5  25479474.086 6                                 104334164.688 5  99986907.734 6        28.900          14.800          35.600          40.600
G06  24876128.297 5  24876137.078 3  24876137.164 6  24876138.215 7 130724929.547 5 101863626.463 3 101863590.464 6  97619273.224 7        35.600          21.100          39.200          44.000
G10  24586829.211 6  24586837.215 3  24586837.598 6  24586835.977 7 129204657.901 6 100678984.006 3 100678986.030 6  96484020.928 7        38.700          22.200          39.700          42.900
G12  21300715.359 8  21300719.266 6  21300719.660 7                 111936015.041 8  87222885.075 6  87222886.079 7                        49.600          36.600          44.300
G13  24203460.734 6  24203466.043 3                                 127190038.353 6  99109141.444 3                                        40.400          22.800
G15  22703909.055 7  22703913.887 5  22703914.121 7                 119309845.574 7  92968729.038 5  92968731.043 7                        47.500          31.800          42.100
G17  22482206.141 8  22482209.645 5  22482209.422 7                 118144785.686 8  92060888.692 5  92060889.668 7                        48.300          34.300          43.300
G19  21056233.766 7  21056236.055 6                                 110651256.352 7  86221766.095 6                                        47.500          38.400
G24  20208523.313 8  20208529.371 7  20208529.703 8  20208529.754 9 106196505.406 8  82750548.128 7  82750550.139 8  79302610.704 9        51.400          43.800          49.100          55.400
G25  24611114.273 6  24611122.570 3  24611122.680 6  24611123.527 7 129332312.159 6 100778439.257 3 100778402.236 6  96579301.518 7        37.100          21.700          39.200          43.600
G28  25340874.859 6  25340879.023 2                                 133167189.999 6 103766666.743 2                                        39.800          13.900
G32  25307495.797 6  25307501.832 3  25307501.867 6  25307500.766 6 132991801.447 6 103629986.001 3 103629953.963 6  99312049.373 6        37.900          20.400          38.100          40.600
> 2019 03 21 12 06 30.0000000  0 13
G01  25489121.523 5                  25489131.055 6  25489129.965 6                                 104373703.61416 100024799.23816        33.300                          36.000          41.300
G06  24858991.484 6  24858999.371 3  24858999.809 6  24859000.688 7 130634871.516 6 101793451.392 3 101793415.403 6  97552022.135 7        36.700          20.600          39.600          43.400
G10  24595202.023 6  24595209.383 3  24595208.883 6  24595207.207 7 129248652.933 6 100713265.815 3 100713267.829 6  96516874.299 7        38.800          22.000          39.500          42.200
G12  21287109.813 8  21287113.770 6  21287113.809 7                 111864517.476 8  87167172.711 6  87167173.722 7                        50.200          37.200          43.600
G13  24225740.625 6  24225746.664 3                                 127307123.904 6  99200376.869 3                                        39.700          22.000
G15  22722138.211 7  22722142.945 5  22722143.461 7                 119405639.295 7  93043373.469 5  93043375.463 7                        47.100          32.800          42.400
G17  22492919.422 8  22492923.090 5  22492923.500 7                 118201084.912 8  92104758.215 5  92104759.218 7                        48.000          34.600          42.700
G19  21056718.750 8  21056720.738 6                                 110653802.916 8  86223750.449 6                                        48.200          37.700
G20  25327554.531 5                                                 133097162.245 5                                                        32.000
G24  20206192.281 8  20206198.523 7  20206198.645 8  20206199.039 9 106184257.125 8  82741004.017 7  82741006.022 8  79293464.257 9        51.000          44.100          48.700          55.300
G25  24591419.531 6  24591428.012 3  24591427.969 6  24591428.578 7 129228814.916 6 100697792.169 3 100697755.158 6  96502014.751 7        38.000          22.200          38.800          43.600
G28  25358125.336 6  25358130.305 2                                 133257845.199 6 103837307.133 2                                        39.100          13.900
G32  25288318.625 6  25288324.477 3  25288324.789 6  25288323.270 6 132891024.747 6 103551458.721 3 103551426.754 6  99236794.093 6        36.800          20.900          38.800          40.900
> 2019 03 21 12 07 00.0000000  0 13
G01  25498874.500 5  25498886.234 2                  25498882.418 6                                                 100063070.009 6        32.900          14.800                          39.000
G06  24841872.922 6  24841883.281 3  24841883.441 6  24841884.125 7 130544924.946 6 101723363.221 3 101723327.193 6  97484854.279 7        37.000          20.100          38.300          43.600
G10  24603659.500 6  24603666.375 3  24603665.992 6  24603664.898 7 129293095.743 6 100747896.532 3 100747898.565 6  96550062.071 7        38.300          21.800          39.800          42.700
G12  21273570.219 8  21273574.301 6  21273574.418 7                 111793366.409 8  87111730.356 6  87111731.345 7                        49.900          37.300          43.500
G13  24248038.250 6  24248044.047 3                                 127424296.905 6  99291680.410 3                                        39.700          21.100
G15  22740419.188 7  22740423.641 5  22740423.641 7                 119501704.347 7  93118229.319 5  93118231.308 7                        47.300          33.100          42.000
G17  22503719.250 8  22503723.109 5  22503723.328 7                 118257839.155 8  92148982.309 5  92148983.312 7                        49.100          34.400          42.500
G19  21057331.453 7  21057333.641 6                                 110657024.597 7  86226260.878 6                                        47.500          38.100
G20  25342118.516 5                                                                                                                        32.800
G24  20203946.258 8  20203952.461 7  20203952.805 8  20203952.906 9 106172453.863 8  82731806.678 7  82731808.675 8  79284650.128 9        51.400          43.900          49.300          55.400
G25  24571746.469 6  24571755.520 3  24571756.102 6  24571756.375 7 129125437.139 6 100617238.175 3 100617201.131 6  96424817.189 7        37.400          22.300          38.100          43.800
G28  25375370.422 6  25375376.051 2                                 133348467.760 6 103907922.238 2                                        38.300          14.800
G32  25269180.492 6  25269187.816 3  25269187.543 6  25269186.516 6 132790458.061 6 103473095.132 3 103473063.182 6  99161695.679 6        36.100          20.600          38.900          41.500
> 2019 03 21 12 07 30.0000000  0 13
G01  25508723.945 5  25508733.961 2  25508731.402 5  25508730.934 6 134049181.412 5 104454005.643 2 104453969.634 5 100101718.970 6        33.600          15.600          33.500          39.000
G06  24824779.992 6  24824788.691 3  24824789.285 6  24824790.051 7 130455093.326 6 101653364.564 3 101653328.590 6  97417772.275 7        38.600          21.100          38.800          43.600
G10  24612200.547 6  24612208.434 3  24612208.238 6  24612207.617 7 129337984.473 6 100782874.712 3 100782876.717 6  96583582.800 7        36.400          21.500          39.000          42.000
G12  21260096.938 8  21260100.535 6  21260100.730 7                 111722563.200 8  87056559.039 6  87056560.028 7                        50.400          37.600          44.000
G13  24270352.375 6  24270357.496 3                                 127541555.501 6  99383050.628 3                                        39.700          21.300
G15  22758750.430 7  22758755.168 5  22758755.273 7                 119598038.403 7  93193294.768 5  93193296.764 7                        45.800          31.800          42.000
G17  22514605.148 8  22514609.309 5  22514609.477 7                 118315046.532 8  92193559.481 5  92193560.471 7                        48.100          34.600          42.900
G19  21058073.305 7  21058075.250 6                                 110660921.482 7  86229297.414 6                                        47.300          37.900
G20  25356713.711 5  25356719.613 2                                                                                                        32.300          15.600
G24  20201785.211 8  20201791.441 7  20201791.305 8  20201791.797 9 106161097.036 8  82722957.184 7  82722959.195 8  79276169.382 9        52.100          44.400          49.200          55.400
G25  24552097.883 6  24552106.637 3  24552106.551 6  24552107.027 7 129022180.295 6 100536778.343 3 100536741.342 6  96347709.902 7        37.400          23.000          39.200          43.600
G28  25392608.680 6  25392614.129 2                                 133439057.108 6 103978511.318 2                                        37.800          13.900
G32  25250084.008 6  25250090.988 3  25250091.246 6  25250089.438 7 132690104.408 6 103394897.462 3 103394865.515 6  99086756.232 7        36.400          21.500          40.000          42.100
> 2019 03 21 12 08 00.0000000  0 12
G01  25518669.180 5  25518677.465 3  25518676.598 5  25518676.102 6 134101441.338 5 104494727.714 3 104494691.704 5 100140744.221 6        33.400          18.300          35.700          40.900
G06  24807708.461 6  24807716.277 3  24807716.559 6  24807718.035 7 130365378.972 6 101583457.295 3 101583421.337 6  97350777.830 7        38.800          22.300          37.800          42.900
G10  24620827.523 6  24620834.563 3  24620834.301 6  24620833.055 6 129383316.200 6 100818198.110 3 100818200.135 6  96617434.380 6        38.300          22.000          38.800          41.500
G12  21246689.930 8  21246693.496 6  21246693.410 7                 111652107.866 8  87001658.810 6  87001659.814 7                        50.900          37.300          43.600
G13  24292681.586 6  24292687.059 3                                 127658896.624 6  99474485.210 3                                        39.700          19.600
G15  22777132.961 7  22777137.520 5  22777138.008 6                 119694638.330 7  93268567.397 5  93268569.398 6                        47.400          32.800          41.400
G17  22525577.461 8  22525581.313 5  22525581.289 7                 118372704.770 8  92238487.984 5  92238488.987 7                        48.400          34.000          42.700
G19  21058943.477 7  21058945.039 6                                 110665492.822 7  86232859.511 6                                        47.800          38.100
G24  20199709.250 8  20199715.203 7  20199715.176 8  20199715.520 9 106150186.211 8  82714455.248 7  82714457.252 8  79268021.686 9        51.700          44.000          49.100          55.400
G25  24532471.180 6  24532480.016 3  24532480.605 6  24532480.945 7 128919044.599 6 100456412.955 3 100456376.003 6  96270693.094 7        37.600          21.800          37.800          43.300
G28  25409841.516 5                                                 133529611.639 5                                                        35.300
G32  25231028.633 5  25231034.871 3  25231034.895 6  25231033.578 7 132589965.558 5 103316867.217 3 103316835.271 6  99011977.273 7        35.300          18.300          38.700          42.100
> 2019 03 21 12 08 30.0000000  0 12
G01  25528710.656 5  25528718.414 2  25528717.398 5  25528716.215 6 134154203.893 5 104535841.402 2 104535805.399 5 100180144.892 6        35.000          17.800          35.300          39.800
G06  24790659.414 6  24790667.504 3  24790668.164 6  24790668.641 7 130275785.959 6 101513644.585 3 101513608.606 6  97283873.977 7        39.000          21.100          37.300          42.000
G10  24629538.008 6  24629545.508 3  24629545.238 6  24629543.215 6 129429089.492 6 100853865.574 3 100853867.571 6  96651615.708 6        38.600          21.700          39.000          41.500
G12  21233348.945 8  21233352.852 6  21233352.941 7                 111582002.354 8  86947031.169 6  86947032.180 7                        50.500          37.500          43.100
G13  24315026.211 6  24315031.699 3                                 127776318.534 6  99565982.707 3                                        39.000          19.900
G15  22795565.758 7  22795570.254 5  22795570.152 6                 119791501.875 7  93344045.447 5  93344047.454 6                        46.600          32.200          41.600
G17  22536635.070 7  22536638.793 5  22536638.875 7                 118430812.473 7  92283766.712 5  92283767.712 7                        47.500          34.600          42.600
G19  21059941.539 8  21059943.332 6                                 110670738.854 8  86236947.345 6                                        48.000          37.900
G20  25386003.484 5  25386008.152 2                                 133404313.585 5 103951455.029 2                                        31.000          15.600
G24  20197718.016 8  20197724.117 7  20197724.156 8  20197724.570 9 106139723.564 8  82706302.545 7  82706304.535 8  79260208.672 9        51.000          44.100          48.800          55.400
G25  24512869.172 6  24512877.238 3  24512877.219 6  24512878.383 7 128816031.984 6 100376143.462 3 100376106.480 6  96193768.170 7        38.100          20.900          37.700          43.600
G28  25427066.953 5                                                 133620131.575 5                                                        35.000
> 2019 03 21 12 09 00.0000000  0 12
G01  25538846.234 5                                  25538851.008 6 134207466.375 5                                 100219918.859 6        32.200                                          38.100
G06  24773633.500 6  24773641.785 3  24773642.492 6  24773643.293 7 130186316.511 6 101443928.180 3 101443892.180 6  97217062.417 7        40.300          22.500          37.200          42.000
G10  24638332.195 6  24638339.121 3  24638338.730 6  24638337.523 6 129475301.170 6 100889874.654 3 100889876.653 6  96686124.381 6        37.500          21.100          38.700          41.300
G12  21220074.602 8  21220078.605 6  21220078.805 7                 111512245.800 8  86892675.445 6  86892676.441 7                        50.700          37.800          43.500
G13  24337386.422 6  24337390.832 3                                 127893817.804 6  99657540.503 3                                        39.400          19.600
G15  22814047.531 7  22814052.125 5  22814052.402 6                 119888625.544 7  93419726.190 5  93419728.202 6                        47.600          31.600          41.400
G17  22547777.578 7  22547781.230 5  22547781.402 7                 118489366.751 7  92329393.416 5  92329394.417 7                        47.800          34.500          42.100
G19  21061067.875 7  21061069.719 6                                 110676658.373 7  86241559.975 6                                        47.900          38.100
G24  20195812.344 8  20195818.457 7  20195818.465 8  20195818.770 9 106129708.685 8  82698498.739 7  82698500.750 8  79252730.039 9        51.600          43.900          48.800          55.400
G25  24493290.977 6  24493298.301 3  24493298.367 6  24493298.875 7 128713142.465 6 100295969.862 3 100295932.865 6  96116935.164 7        37.700          22.300          38.300          43.200
G28  25444285.969 5                                                                                                                        32.500
G32  25193038.281 5                  25193048.102 6  25193046.707 6                                 103161286.32416  98862909.51816        33.700                          37.200          41.700
> 2019 03 21 12 09 30.0000000  0 13
G01  25549074.867 4                  25549082.426 5  25549082.426 6 134261226.370 4                 104619200.366 5 100260065.036 6        29.900                          31.600          38.300
G06  24756631.922 6  24756640.469 3  24756640.898 6  24756641.750 7 130096973.910 6 101374310.611 3 101374274.631 6  97150345.597 7        41.200          22.500          38.100          42.100
G10  24647208.188 6  24647216.270 3  24647216.195 6  24647214.414 6 129521949.183 6 100926223.718 3 100926225.742 6  96720958.898 6        37.200          21.500          39.600          41.400
G12  21206867.070 8  21206870.977 6  21206870.961 7                 111442839.254 8  86838592.452 6  86838593.449 7                        50.500          38.100          44.500
G13  24359759.375 6  24359764.863 3                                 128011392.049 6  99749156.710 3                                        39.600          18.600
G15  22832578.602 7  22832583.531 5  22832583.703 6                 119986006.988 7  93495607.790 5  93495609.792 6                        46.800          32.000          41.900
G17  22559004.680 8  22559008.738 5  22559008.676 7                 118548366.118 8  92375366.960 5  92375367.947 7                        48.100          34.500          42.800
G19  21062322.563 8  21062324.477 6                                 110683251.163 8  86246697.224 6                                        48.300          38.300
G20  25415413.125 4                                                                                                                        29.900
G24  20193992.031 8  20193997.957 7  20193998.230 8  20193998.398 9 106120142.437 8  82691044.525 7  82691046.522 8  79245586.404 9        51.100          43.700          49.100          55.400
G25  24473734.359 6  24473742.633 3  24473742.480 6  24473743.258 7 128610377.291 6 100215893.133 3 100215856.164 6  96040194.998 7        38.000          21.300          38.100          42.700
G28  25461497.953 5                                                                                                                        31.500
G32  25174110.703 5  25174117.246 3  25174117.641 6  25174117.363 7 132290877.132 5 103083799.026 3 103083771.045 6  98788624.060 7        34.400          18.300          37.700          42.100
> 2019 03 21 12 10 00.0000000  0 11
G06  24739656.180 6  24739663.887 3  24739665.305 6  24739665.551 7 130007762.045 6 101304794.908 3 101304758.929 6  97083726.400 7        41.200          22.900          37.900          42.300
G10  24656167.875 6  24656175.848 3  24656175.285 6  24656174.375 6 129569032.023 6 100962911.600 3 100962913.623 6  96756118.126 6        37.100          22.800          39.900          41.100
G12  21193726.547 8  21193730.098 6  21193730.395 7                 111373784.867 8  86784783.865 6  86784784.861 7                        50.700          37.600          44.700
G13  24382146.945 6  24382152.629 3                                 128129039.953 6  99840830.342 3                                        39.000          19.300
G15  22851158.563 7  22851163.344 5  22851163.684 6                 120083644.378 7  93571688.837 5  93571690.846 6                        47.300          32.100          41.800
G17  22570316.320 8  22570320.324 5  22570320.195 7                 118607809.004 8  92421686.081 5  92421687.074 7                        48.600          34.600          42.900
G19  21063705.219 8  21063707.168 6                                 110690517.529 8  86252359.340 6                                        49.000          38.100
G20  25430163.352 4                                                                                                                        28.600
G24  20192256.953 8  20192263.176 7  20192263.539 8  20192263.629 9 106111026.100 8  82683940.889 7  82683942.886 8  79238778.752 9        51.800          43.900          49.000          55.400
G25  24454202.523 6  24454210.570 3  24454210.984 6  24454211.949 7 128507738.281 6 100135914.722 3 100135877.755 6  95963549.035 7        38.800          20.900          37.500          43.200
G32  25155223.547 6  25155230.793 3  25155231.660 6  25155230.242 7 132191625.401 6 103006460.000 3 103006432.016 6  98714507.494 7        36.400          18.600          37.900          42.100
> 2019 03 21 12 10 30.0000000  0 11
G01  25569819.031 5                  25569827.219 5  25569825.820 6                                 104704144.189 5 100341469.578 6        30.500                          34.400          38.600
G06  24722704.133 6  24722712.680 3  24722713.559 6  24722714.270 6 129918683.255 6 101235382.938 3 101235346.948 6  97017206.602 6        40.300          22.200          36.000          41.400
G10  24665209.289 6  24665217.293 3  24665217.641 6  24665215.641 6 129616546.737 6 100999936.014 3 100999938.010 6  96791599.848 6        38.600          21.100          39.800          40.800
G12  21180653.078 8  21180656.684 6  21180656.898 7                 111305082.443 8  86731249.538 6  86731250.528 7                        50.900          37.900          44.100
G13  24404548.359 6  24404554.285 3                                 128246758.476 6  99932558.978 3                                        38.700          19.000
G15  22869786.289 8  22869790.883 5  22869791.230 6                 120181533.666 8  93647966.175 5  93647968.164 6                        48.000          32.100          41.400
G17  22581711.617 8  22581715.621 5  22581715.840 7                 118667692.773 8  92468348.761 5  92468349.756 7                        48.300          34.300          42.600
G19  21065215.922 8  21065217.793 6                                 110698456.297 8  86258545.409 6                                        48.900          38.600
G24  20190607.867 8  20190614.160 7  20190614.074 8  20190614.500 9 106102359.896 8  82677188.003 7  82677189.999 8  79232307.241 9        51.700          44.100          49.100          55.400
G25  24434694.164 6  24434703.230 3  24434703.297 6  24434704.391 7 128405225.826 6 100056034.931 3 100055997.928 6  95886997.553 7        37.600          20.900          37.600          43.000
G32  25136380.164 6  25136387.117 3  25136387.086 6  25136386.766 7 132092601.787 6 102929298.766 3 102929270.797 6  98640561.313 7        37.500          19.300          37.100          42.900
> 2019 03 21 12 11 00.0000000  0 11
G01  25580331.398 6                  25580339.215 5  25580339.895 6 134425481.747 6                 104747193.087 5 100382724.755 6        36.800                          34.300          40.900
G06  24705779.789 6  24705787.773 3  24705788.133 5  24705788.980 6 129829741.120 6 101166077.422 3 101166041.415 5  96950788.849 6        41.500          21.100          35.800          41.300
G10  24674333.609 6  24674340.711 3  24674340.250 6  24674338.691 6 129664491.301 6 101037295.369 3 101037297.408 6  96827402.563 6        38.400          20.600          37.700          40.000
G12  21167646.336 8  21167650.086 6  21167650.098 7                 111236733.095 8  86677990.324 6  86677991.321 7                        50.700          37.800          44.100
G13  24426962.672 6  24426967.941 3                                 128364545.212 6 100024340.737 3                                        40.300          19.600
G15  22888461.953 7  22888466.230 5  22888466.391 6                 120279672.899 7  93724438.254 5  93724440.251 6                        47.200          32.100          41.600
G17  22593190.797 8  22593194.867 5  22593194.484 7                 118728015.384 8  92515353.389 5  92515354.390 7                        48.000          34.400          42.600
G19  21066854.273 8  21066856.578 6                                 110707067.300 8  86265255.286 6                                        48.200          38.000
G24  20189044.313 8  20189050.840 7  20189051.133 8  20189051.141 9 106094144.874 8  82670786.684 7  82670788.688 8  79226172.646 9        52.100          43.700          48.700          55.400
G25  24415211.953 6  24415220.586 3  24415220.684 6  24415220.930 7 128302841.180 6  99976254.715 3  99976217.721 6  95810541.543 7        38.300          21.500          37.500          42.200
G32  25117579.961 6  25117588.141 3  25117587.730 6  25117587.117 7 131993809.190 6 102852317.535 3 102852289.566 6  98566787.641 7        38.200          19.000          37.300          42.300
> 2019 03 21 12 11 30.0000000  0 11
G01  25590939.328 5  25590946.637 2  25590947.129 5  25590945.285 6 134481218.838 5 104790644.618 2 104790624.634 5 100424346.689 6        35.000          15.600          35.100          40.200
G06  24688880.813 6  24688889.141 3  24688889.590 6  24688890.023 6 129740938.847 6 101096880.910 3 101096844.896 6  96884475.511 6        41.100          21.700          36.900          40.800
G10  24683538.555 6  24683545.773 3  24683545.578 6  24683543.953 6 129712863.468 6 101074987.966 3 101074989.971 6  96863524.628 6        39.500          21.800          38.200          40.300
G12  21154707.273 8  21154710.965 6  21154711.406 7                 111168737.954 8  86625007.113 6  86625008.110 7                        51.200          37.900          44.000
G13  24449389.391 6  24449394.754 3                                 128482397.846 6 100116173.907 3                                        40.100          19.600
G15  22907184.211 7  22907188.680 5  22907188.430 6                 120378059.422 7  93801103.037 5  93801105.034 6                        47.200          31.600          41.700
G17  22604753.164 7  22604756.953 5  22604756.770 7                 118788775.166 7  92562698.665 5  92562699.675 7                        47.800          34.500          42.400
G19  21068620.789 8  21068622.969 6                                 110716350.334 8  86272488.830 6                                        48.300          37.600
G24  20187567.188 8  20187573.434 7  20187573.785 8  20187573.887 9 106086381.784 8  82664737.521 7  82664739.525 8  79220375.536 9        51.600          44.500          49.600          55.400
G25  24395753.836 6  24395761.289 3  24395761.523 6  24395762.488 7 128200585.559 6  99896575.058 3  99896538.048 6  95734181.849 7        38.600          21.300          38.100          42.900
G32  25098826.016 6  25098833.059 3  25098833.742 6  25098831.770 7 131895250.263 6 102775518.433 3 102775490.480 6  98493188.504 7        37.400          18.300          36.100          42.000
> 2019 03 21 12 12 00.0000000  0 13
G01  25601637.813 5  25601646.426 2  25601645.078 5  25601645.215 6 134537444.686 5 104834456.868 2 104834436.964 5 100466333.446 6        32.000          14.800          31.800          38.900
G02  25670424.602 5                                                 134898977.345 5                                                        31.900
G06  24672009.195 6  24672017.789 3  24672018.152 6  24672018.688 6 129652279.102 6 101027795.436 3 101027759.451 6  96818268.633 6        41.200          21.800          36.400          41.700
G10  24692824.008 6  24692831.449 3  24692830.805 6  24692830.316 6 129761660.502 6 101113011.563 3 101113013.607 6  96899963.924 6        39.100          21.800          38.200          39.900
G12  21141835.359 8  21141839.313 6  21141839.598 7                 111101096.910 8  86572299.829 6  86572300.833 7                        51.300          37.900          45.600
G13  24471827.648 6  24471833.480 3                                 128600313.456 6 100208056.123 3                                        40.100          19.600
G15  22925952.938 7  22925957.727 5  22925957.461 6                 120476690.232 7  93877958.173 5  93877960.167 6                        47.200          31.300          41.800
G17  22616398.000 8  22616401.672 5  22616401.848 7                 118849969.441 8  92610382.512 5  92610383.508 7                        48.000          34.300          43.700
G19  21070515.094 7  21070516.996 6                                 110726304.478 7  86280245.317 6                                        47.900          38.300
G24  20186176.383 8  20186182.332 7  20186182.555 8  20186182.758 9 106079071.197 8  82659040.960 7  82659042.971 8  79214916.334 9        51.900          44.400          50.900          55.400
G25  24376319.086 6  24376327.617 3  24376327.703 6  24376328.305 7 128098459.464 6  99816996.319 3  99816959.367 6  95657918.950 7        39.000          20.100          38.600          42.800
G28  25547446.578 5                                                 134252722.288 5                                                        33.700
G32  25080115.453 6  25080122.598 2  25080122.480 5  25080121.273 6 131796927.423 6 102698903.128 2 102698875.170 5  98419765.572 6        38.700          17.800          34.800          41.100
> 2019 03 21 12 12 30.0000000  0 12
G02  25654055.375 5  25654059.148 2                                 134812954.086 5 105049080.369 2                                        33.500          16.300
G06  24655166.219 6  24655173.977 3  24655173.855 6  24655175.027 6 129563764.822 6 100958823.299 3 100958787.311 6  96752170.358 6        40.800          22.000          37.100          40.400
G10  24702190.430 6  24702197.551 3  24702197.832 6  24702196.434 6 129810879.753 6 101151364.218 3 101151366.254 6  96936718.522 6        38.900          20.400          37.300          39.500
G12  21129031.133 8  21129035.086 6  21129035.109 7                 111033810.768 8  86519869.091 6  86519870.103 7                        50.800          38.300          43.600
G13  24494277.742 6  24494283.758 3                                 128718289.455 6 100299985.393 3                                        40.300          21.300
G15  22944767.742 7  22944772.223 5  22944772.227 6                 120575561.883 7  93955000.980 5  93955002.976 6                        47.000          32.000          41.300
G17  22628125.070 8  22628128.805 5  22628128.852 7                 118911595.834 8  92658403.065 5  92658404.076 7                        48.500          33.600          42.300
G19  21072536.852 8  21072538.695 6                                 110736928.312 8  86288523.637 6                                        48.300          38.100
G24  20184870.508 8  20184877.250 7  20184877.477 8  20184877.750 9 106072213.210 8  82653697.076 7  82653699.080 8  79209795.100 9        52.100          43.900          48.800          55.400
G25  24356910.109 6  24356918.078 3  24356918.066 6  24356919.129 7 127996463.755 6  99737519.209 3  99737482.222 6  95581753.375 7        38.600          20.400          38.100          42.900
G28  25564611.898 5                                                                                                                        31.600
G32  25061450.383 6  25061457.117 3  25061456.824 5  25061456.125 6 131698842.819 6 102622473.583 3 102622445.604 5  98346520.566 6        38.900          18.600          35.100          39.300
> 2019 03 21 12 13 00.0000000  0 13
G01  25623315.063 5                  25623322.430 5  25623321.777 7 134651363.351 5                 104923196.494 5 100551396.571 7        34.900                          35.600          42.200
G02  25637670.008 5  25637674.469 2                                 134726850.087 5 104981986.586 2                                        35.400          16.300
G06  24638350.313 6  24638358.422 3  24638358.754 6  24638359.473 6 129475399.998 6 100889967.654 3 100889931.680 6  96686183.687 6        40.600          22.200          36.800          40.500
G10  24711636.000 6  24711644.250 3  24711643.504 6  24711641.953 6 129860519.834 6 101190044.778 3 101190046.795 6  96973787.411 6        38.000          20.100          37.300          38.700
G12  21116294.820 8  21116298.961 6  21116299.180 7                 110966881.320 8  86467716.308 6  86467717.305 7                        50.700          38.600          44.100
G13  24516739.570 6  24516745.043 3                                 128836324.221 6 100391960.455 3                                        41.000          20.900
G15  22963627.570 7  22963632.387 5  22963632.566 7                 120674672.995 7  94032230.378 5  94032232.362 7                        46.900          31.200          42.000
G17  22639934.125 8  22639938.125 5  22639938.234 7                 118973653.316 8  92706759.546 5  92706760.544 7                        48.200          34.500          42.200
G19  21074686.258 8  21074688.039 6                                 110748222.873 8  86297324.604 6                                        48.300          38.700
G24  20183652.641 8  20183658.848 7  20183659.141 8  20183659.164 9 106065809.850 8  82648707.450 7  82648709.447 8  79205013.376 9        51.400          44.100          49.300          55.400
G25  24337526.688 6  24337534.121 3  24337534.887 6  24337535.156 7 127894600.309 6  99658145.205 3  99658108.217 6  95505686.633 7        39.900          21.800          38.500          42.400
G28  25581771.766 5                                                 134433103.88315                                                        32.300
G32  25042831.438 6  25042838.547 3  25042838.633 5  25042837.914 6 131601000.154 6 102546232.560 3 102546204.564 5  98273456.219 6        36.800          20.100          35.700          40.700
> 2019 03 21 12 13 30.0000000  0 12
G02  25621269.492 6  25621274.344 3                                 134640664.606 6 104914829.097 3                                        41.600          22.500
G06  24621563.555 6  24621572.367 3  24621573.031 6  24621573.340 6 129387187.287 6 100821230.509 3 100821194.510 6  96620310.632 6        40.800          22.800          37.600          40.900
