     3.04           OBSERVATION DATA    M (MIXED)           RINEX VERSION / TYPE
cnvtToRINEX 3.08.0  convertToRINEX OPR  29-Jul-19 18:08 UTC PGM / RUN BY / DATE 
gfzrnx-1.11-7513    FILE CONVERSION     20190802 203036 UTC COMMENT             
----------------------------------------------------------- COMMENT             
JAB1                                                        MARKER NAME         
1                                                           MARKER NUMBER       
GEODETIC                                                    MARKER TYPE         
spanikp             SUT                                     OBSERVER / AGENCY   
5448R50048          TRIMBLE NETR9       5.37                REC # / TYPE / VERS 
12118048            TRM57971.00     NONE                    ANT # / TYPE        
  4035921.4204  1285355.7843  4752936.8469                  APPROX POSITION XYZ 
        0.2800       -0.1990        0.8700                  ANTENNA: DELTA H/E/N
     0                                                      RCV CLOCK OFFS APPL 
 11 R04  6 R05  1 R06 -4 R13 -2 R14 -7 R15  0 R16 -1 R17  4 GLONASS SLOT / FRQ #
    R22 -3 R23  3 R24  2                                    GLONASS SLOT / FRQ #
G L2X -0.25000                                              SYS / PHASE SHIFT   
R L1P  0.25000                                              SYS / PHASE SHIFT   
R L2C -0.25000                                              SYS / PHASE SHIFT   
R L2P  0.00000                                              SYS / PHASE SHIFT   
    18                                                      LEAP SECONDS        
DBHZ                                                        SIGNAL STRENGTH UNIT
 C1C    0.000 C1P    0.000 C2C    0.000 C2P    0.000        GLONASS COD/PHS/BIS 
C    9 C2I C6I C7I L2I L6I L7I S2I S6I S7I                  SYS / # / OBS TYPES 
E   15 C1X C5X C6X C7X C8X L1X L5X L6X L7X L8X S1X S5X S6X  SYS / # / OBS TYPES 
       S7X S8X                                              SYS / # / OBS TYPES 
G   12 C1C C2W C2X C5X L1C L2W L2X L5X S1C S2W S2X S5X      SYS / # / OBS TYPES 
I    3 C5A L5A S5A                                          SYS / # / OBS TYPES 
R   12 C1C C1P C2C C2P L1C L1P L2C L2P S1C S1P S2C S2P      SYS / # / OBS TYPES 
S    6 C1C C5I L1C L5I S1C S5I                              SYS / # / OBS TYPES 
    57                                                      # OF SATELLITES     
   C05   117   117   117   117   115   113   117   117   117PRN / # OF OBS      
   C08   119   119   119   119   119   119   119   119   119PRN / # OF OBS      
   C10   102    95    95    83    80    82   102    95    95PRN / # OF OBS      
   C13   120   120   120   120   120   120   120   120   120PRN / # OF OBS      
   C14   119   119   119   119   119   119   119   119   119PRN / # OF OBS      
   C18    51    50          47    47          51    50      PRN / # OF OBS      
   C21   114   114         112   112         114   114      PRN / # OF OBS      
   C24    11    11          11    11          11    11      PRN / # OF OBS      
   C26   120   120         120   120         120   120      PRN / # OF OBS      
   C27     2     2           1                 2     2      PRN / # OF OBS      
   C29   120   120         120   120         120   120      PRN / # OF OBS      
   C30   120   120         120   120         120   120      PRN / # OF OBS      
   E02   119   119   117   119   119   119   119   117   119PRN / # OF OBS      
         119   119   119   117   119   119                  PRN / # OF OBS      
   E03   119   119   119   119   119   119   119   119   119PRN / # OF OBS      
         119   119   119   119   119   119                  PRN / # OF OBS      
   E05   115   115   109   115   115   113   115   108   115PRN / # OF OBS      
         115   115   115   109   115   115                  PRN / # OF OBS      
   E08   105   105   105   105   105   105   105   105   105PRN / # OF OBS      
         105   105   105   105   105   105                  PRN / # OF OBS      
   E11   103   103    94   103   103   100   103    91   103PRN / # OF OBS      
         103   103   103    94   103   103                  PRN / # OF OBS      
   E12   107   107   107   107   107   107   107   107   107PRN / # OF OBS      
         107   107   107   107   107   107                  PRN / # OF OBS      
   E18    89    89    79    88    89    86    89    78    88PRN / # OF OBS      
          89    89    89    79    88    89                  PRN / # OF OBS      
   E24   120   120   120   120   120   120   120   120   120PRN / # OF OBS      
         120   120   120   120   120   120                  PRN / # OF OBS      
   E25   119   119   119   119   119   119   119   119   119PRN / # OF OBS      
         119   119   119   119   119   119                  PRN / # OF OBS      
   E31    49    49    37    47    49    46    49    35    47PRN / # OF OBS      
          49    49    49    37    47    49                  PRN / # OF OBS      
   E33   104   104   101   104   104   104   104   101   104PRN / # OF OBS      
         104   104   104   101   104   104                  PRN / # OF OBS      
   E36     3     3     3     3     3     3     3     3     3PRN / # OF OBS      
           3     3     3     3     3     3                  PRN / # OF OBS      
   G01    14     7    12    14     9     5    12    14    14PRN / # OF OBS      
           7    12    14                                    PRN / # OF OBS      
   G02    93    84                90    84                93PRN / # OF OBS      
          84                                                PRN / # OF OBS      
   G06   120   119   120   120   120   119   120   120   120PRN / # OF OBS      
         119   120   120                                    PRN / # OF OBS      
   G10    98    96    94    96    97    95    94    96    98PRN / # OF OBS      
          96    94    96                                    PRN / # OF OBS      
   G12   120   120   120         120   120   120         120PRN / # OF OBS      
         120   120                                          PRN / # OF OBS      
   G13    79    74                78    74                79PRN / # OF OBS      
          74                                                PRN / # OF OBS      
   G14    43    32                37    31                43PRN / # OF OBS      
          32                                                PRN / # OF OBS      
   G15   120   120   120         120   120   120         120PRN / # OF OBS      
         120   120                                          PRN / # OF OBS      
   G17   120   120   120         120   120   120         120PRN / # OF OBS      
         120   120                                          PRN / # OF OBS      
   G19   120   120               120   120               120PRN / # OF OBS      
         120                                                PRN / # OF OBS      
   G20    10     2                 5     1                10PRN / # OF OBS      
           2                                                PRN / # OF OBS      
   G24   120   120   120   120   120   120   120   120   120PRN / # OF OBS      
         120   120   120                                    PRN / # OF OBS      
   G25   120   119   119   119   119   119   119   119   120PRN / # OF OBS      
         119   119   119                                    PRN / # OF OBS      
   G28    34    24                30    24                34PRN / # OF OBS      
          24                                                PRN / # OF OBS      
   G29    21    17    17          16    15    17          21PRN / # OF OBS      
          17    17                                          PRN / # OF OBS      
   G32   117   112   114   117   115   112   114   117   117PRN / # OF OBS      
         112   114   117                                    PRN / # OF OBS      
   I02   119   119   119                                    PRN / # OF OBS      
   I03   118   118   118                                    PRN / # OF OBS      
   I06   119   119   119                                    PRN / # OF OBS      
   R04   109   109   107   109   109   109   107   108   109PRN / # OF OBS      
         109   107   109                                    PRN / # OF OBS      
   R05   120   120   120   120   120   120   120   120   120PRN / # OF OBS      
         120   120   120                                    PRN / # OF OBS      
   R06   115   115               115   112               115PRN / # OF OBS      
         115                                                PRN / # OF OBS      
   R13   112   111   109   112   112   110   108   112   112PRN / # OF OBS      
         111   109   112                                    PRN / # OF OBS      
   R14   120   120   120   120   120   120   120   120   120PRN / # OF OBS      
         120   120   120                                    PRN / # OF OBS      
   R15   120   120   120   120   120   120   120   120   120PRN / # OF OBS      
         120   120   120                                    PRN / # OF OBS      
   R16    25    24    14    22    25    24    13    18    25PRN / # OF OBS      
          24    14    22                                    PRN / # OF OBS      
   R17   119   119   117   119   119   119   117   119   119PRN / # OF OBS      
         119   117   119                                    PRN / # OF OBS      
   R22    28    28    23    27    28    28    23    27    28PRN / # OF OBS      
          28    23    27                                    PRN / # OF OBS      
   R23   120   120   120   120   120   120   120   120   120PRN / # OF OBS      
         120   120   120                                    PRN / # OF OBS      
   R24   120   120   108   120   120   120    99   120   120PRN / # OF OBS      
         120   108   120                                    PRN / # OF OBS      
   S27    65    62    65          65    62                  PRN / # OF OBS      
   S28    85    84    85          85    84                  PRN / # OF OBS      
   S36   120   119   120   109   120   119                  PRN / # OF OBS      
    30.000                                                  INTERVAL            
  2019     3    21    12     0    0.0000000     GPS         TIME OF FIRST OBS   
  2019     3    21    12    59   30.0000000     GPS         TIME OF LAST OBS    
                                                            END OF HEADER      
> 2019 03 21 12 00 00.0000000  0 24
C13  39354499.531 7  39354492.430 6  39354501.043 6 204929203.024 7 166521734.505 6 158464264.655 6        42.600          41.300          39.100
C21  25052892.203 7  25052880.980 7                 130456983.271 7 106006936.407 7                        43.800          43.200
C26  24264255.422 7  24264247.898 7                 126350341.506 7 102669971.768 7                        44.200          43.800
C29  23226168.727 8  23226159.922 7                 120944752.771 8  98277482.058 7                        48.800          44.500
C30  23624830.867 7  23624824.711 7                 123020690.679 7  99964363.608 7                        47.300          43.800
E24  21970082.719 8  21970096.688 8  21970068.082 8  21970096.156 8  21970097.043 8 115453560.851 8  86215377.706 8  93712244.373 8  88464471.085 8  87339926.997 8        50.900          49.700          53.700          49.100          52.500
G06  25083226.133 6                  25083235.332 6  25083236.234 6 131813231.844 6                 102711617.190 6  98431965.323 6        38.800                          37.300          41.300
G10  24493169.000 6  24493175.922 4  24493175.066 6  24493174.031 7 128712465.729 6 100295458.132 4 100295460.141 6  96116475.369 7        41.600          25.600          40.000          43.100
G12  21469073.945 8  21469077.746 6  21469077.867 7                 112820743.022 8  87912283.170 6  87912284.180 7                        49.300          36.300          42.000
G13  23937572.820 6  23937577.551 3                                 125792790.486 6  98020377.749 3                                        40.400          21.500
G15  22489384.586 7  22489388.941 5  22489388.762 6                 118182511.560 7  92090287.385 5  92090289.382 6                        47.800          33.500          41.700
G17  22360544.820 8  22360548.395 5  22360548.340 7                 117505451.880 8  91562706.506 5  91562707.493 7                        49.700          35.700          42.200
G19  21060462.703 8  21060464.664 6                                 110673476.750 8  86239080.560 6                                        48.500          38.100
G20  25141423.055 6                                                 132119059.199 6                                                        39.500
G24  20243049.484 8  20243055.453 7  20243055.578 8  20243055.988 9 106377941.101 8  82891926.559 7  82891928.563 8  79438098.352 9        51.000          43.400          48.300          55.300
G25  24849165.078 6                                                                                                                        37.300
R05  21246932.906 7  21246932.559 7  21246935.859 7  21246935.711 7 113577030.353 7 113577276.362 7  88337878.068 7  88337794.070 7        47.500          42.600          42.800          42.700
R13  21595891.734 6  21595890.332 6  21595894.551 6  21595894.426 6 115320858.252 6 115320853.249 6  89693996.659 6  89693871.655 6        40.800          38.100          38.000          37.700
R14  19467395.367 8  19467394.352 7  19467398.074 7  19467397.891 7 103772166.033 8 103772169.029 7  80711686.810 7  80711778.805 7        50.200          45.200          44.900          44.000
R15  21579726.219 7  21579726.016 6  21579729.207 7  21579729.664 7 115315510.859 7 115315510.871 6  89689842.308 7  89690185.290 7        45.200          41.100          42.500          42.100
R22  23940057.266 6  23940056.664 6  23940061.344 6  23940060.996 6 127793655.571 6 127793656.557 6  99395067.039 6  99395049.061 6        38.600          37.300          38.100          38.300
R23  20760460.883 8  20760460.445 7  20760465.684 6  20760466.316 6 111054470.632 8 111054465.628 7  86375695.948 6  86375783.944 6        48.800          43.400          40.100          38.400
R24  21363068.961 6  21363068.359 6  21363070.211 5  21363070.363 5 114237933.283 6 114237925.301 6  88851723.364 5  88852112.363 5        41.700          38.800          32.700          32.300
S36  38330726.016 7  38330714.301 6 201429323.074 7 150417954.993 6        42.100          41.600
> 2019 03 21 12 00 30.0000000  0 39
C05  39425328.680 6  39425319.414 6  39425324.355 6 205298029.531 6 166821429.467 6 158749442.678 6        36.400          40.800          40.000
C08  39081987.023 6  39081973.355 7  39081980.715 6 203510154.306 6 165368698.799 7 157366964.092 6        40.200          42.200          40.900
C10  40703891.883 6  40703881.938 5  40703890.164 5 211955845.852 6                                        36.800          34.600          34.900
C13  39344840.766 7  39344834.359 6  39344842.914 6 204878910.520 7 166480867.750 6 158425375.317 6        42.000          41.200          39.600
C14  24694625.070 6  24694613.160 7  24694621.457 7 128591393.922 6 104491042.361 7  99435004.184 7        41.800          44.300          42.700
C21  25068200.469 7  25068189.230 7                 130536697.833 7 106071710.968 7                        43.400          43.400
C26  24249461.805 7  24249454.098 7                 126273307.360 7 102607375.235 7                        44.400          44.700
C27  27077597.703 6  27077591.078 5                 141000162.413 6                                        37.400          34.400
C29  23213491.609 8  23213483.324 7                 120878742.229 8  98223843.091 7                        48.100          45.400
C30  23629978.180 7  23629972.738 7                 123047496.830 7  99986145.811 7                        47.000          45.400
E02  27965773.664 6  27965778.102 6  27965768.316 6  27965777.672 6  27965778.180 7 146961129.727 6 109743718.706 6 119286605.243 6 112606592.861 6 111175160.389 7        41.400          39.100          40.400          39.100          42.300
E03  25110830.609 7  25110834.297 7  25110823.328 8  25110834.172 7  25110834.887 8 131958305.124 7  98540306.164 7 107108980.813 8 101110922.454 7  99825617.408 8        46.900          45.800          49.500          45.400          48.600
E05  26172141.352 7  26172146.754 7  26172134.418 7  26172146.566 7  26172147.176 7 137535530.951 7 102705123.372 7 111635948.750 7 105384386.075 7 104044757.326 7        44.300          44.500          47.300          44.100          47.000
E24  21976651.148 8  21976665.188 8  21976636.852 8  21976665.141 8  21976665.805 8 115488079.626 8  86241154.716 8  93740262.861 8  88490920.537 8  87366040.230 8        50.800          49.700          53.700          49.100          52.500
E25  23394414.742 8  23394418.246 8  23394406.809 8  23394418.086 8  23394418.836 8 122938479.366 8  91804721.371 8  99787690.609 8  94199625.736 8  93002176.156 8        49.500          49.200          53.600          48.700          52.000
G06  25065874.844 6  25065883.672 3  25065884.105 6  25065884.383 6 131722049.033 6 102640601.696 3 102640565.708 6  98363874.304 6        39.100          22.800          37.800          41.100
G10  24500480.867 6  24500488.219 4  24500487.875 6  24500486.547 7 128750892.616 6 100325401.133 4 100325403.181 6  96145170.757 7        40.600          25.300          40.200          43.100
G12  21454684.078 8  21454688.340 6  21454688.551 7                 112745125.924 8  87853360.793 6  87853361.797 7                        49.900          36.700          43.600
G13  23959611.211 6  23959616.168 3                                 125908603.025 6  98110621.225 3                                        41.000          22.300
G15  22506947.922 8  22506952.813 5  22506953.000 7                 118274809.978 8  92162208.193 5  92162210.209 7                        48.500          33.600          42.800
G17  22370184.125 8  22370188.141 5  22370188.234 7                 117556108.788 8  91602179.427 5  91602180.420 7                        48.800          34.500          43.000
G19  21059397.227 8  21059399.473 6                                 110667879.474 8  86234719.046 6                                        48.200          38.300
G20  25155510.086 6                                                 132193088.475 6                                                        37.300
G24  20239708.805 8  20239715.191 7  20239715.273 8  20239715.594 9 106360387.500 8  82878248.436 7  82878250.441 8  79424990.149 9        51.400          43.500          48.300          55.200
G25  24829206.055 6  24829214.805 3  24829214.871 6  24829215.320 6 130478387.975 6 101671484.391 3 101671447.418 6  97435136.305 6        36.300          18.600          36.200          40.500
G28  25150745.156 5  25150751.953 2                                 132168057.197 5 102988122.173 2                                        31.600          16.300
I02  37528843.125 6 147271237.696 6        40.200
I06  38222218.586 6 149992227.831 6        39.200
R04  21779349.617 7  21779348.840 6  21779351.969 7  21779351.758 7 116627421.843 7 116627418.867 6  90710215.578 7  90710030.580 7        44.600          41.700          43.100          42.400
R05  21247516.164 7  21247516.352 7  21247519.336 7  21247519.258 7 113580150.256 7 113580396.257 7  88340304.631 7  88340220.648 7        47.200          43.200          43.300          43.700
R06  23964610.430 5  23964607.578 5                                 127879749.926 5 127879760.923 5                                        34.600          33.700
R13  21611541.180 6  21611538.922 6  21611542.992 6  21611542.930 6 115404420.857 6 115404415.854 6  89758989.755 6  89758864.760 6        41.000          38.100          38.200          37.600
R14  19467342.297 8  19467341.488 7  19467345.613 7  19467345.184 7 103771884.669 8 103771887.672 7  80711467.980 7  80711559.977 7        50.800          45.100          45.600          44.900
R15  21563992.172 7  21563992.566 7  21563994.586 7  21563995.676 7 115231434.036 7 115231434.041 7  89624449.238 7  89624792.240 7        45.900          42.600          43.400          42.800
R17  24185222.711 6  24185222.070 6                  24185228.441 4 129420014.132 6 129420010.115 6                 100660014.670 4        39.900          36.800                          27.000
R22  23961047.258 6  23961044.742 6  23961048.121 6  23961049.242 6 127905689.525 6 127905690.518 6  99482204.536 6  99482186.553 6        38.200          36.500          37.700          37.600
R23  20761157.398 8  20761155.902 7  20761160.582 6  20761162.051 6 111058191.050 8 111058186.055 7  86378589.607 6  86378677.610 6        48.800          43.900          40.700          38.800
R24  21344146.563 7  21344146.152 6  21344149.242 5  21344148.168 5 114136747.834 7 114136739.842 6  88773023.600 5  88773412.602 5        42.200          39.500          32.800          31.600
S36  38330725.469 6  38330714.488 7 201429323.020 6 150417960.826 7        41.400          42.100
> 2019 03 21 12 01 00.0000000  0 39
C05  39425007.250 6  39424997.922 6  39425002.488 6 205296355.234 6 166820068.941 6 158748147.979 6        36.000          40.400          39.200
C08  39076167.914 6  39076154.652 6  39076161.902 6 203479854.574 6 165344077.801 6 157343534.439 6        39.600          41.400          40.200
C10  40708425.953 6  40708414.762 5  40708423.586 5 211979451.287 6 172250626.648 5 163915951.407 5        37.100          34.100          34.100
C13  39335218.453 7  39335211.684 6  39335220.285 6 204828803.650 7 166440151.835 6 158386629.539 6        42.500          40.800          39.400
C14  24697848.883 7  24697836.020 7  24697844.355 7 128608176.856 7 104504679.843 7  99447981.789 7        42.000          42.900          42.200
C21  25083560.125 7  25083548.914 7                 130616678.977 7 106136702.160 7                        43.800          42.400
C26  24234697.180 7  24234689.789 7                 126196425.932 7 102544902.791 7                        43.900          43.400
C29  23200900.328 7  23200891.813 7                 120813175.301 7  98170564.593 7                        47.800          44.400
C30  23635232.984 7  23635227.164 7                 123074858.965 7 100008379.788 7                        47.200          43.800
E02  27951743.547 6  27951748.648 6  27951738.410 6  27951747.020 6  27951748.648 6 146887404.649 6 109688664.320 6 119226763.504 6 112550102.263 6 111119387.901 6        40.500          38.300          39.400          37.200          41.000
E03  25115132.633 7  25115136.363 7  25115125.410 8  25115135.844 7  25115136.820 8 131980912.139 7  98557188.015 7 107127330.647 8 101128244.694 7  99842719.453 8        47.300          45.900          49.500          45.100          48.600
E05  26188633.773 7  26188639.066 7  26188626.715 7  26188638.629 7  26188639.551 7 137622198.839 7 102769842.828 7 111706296.011 7 105450793.865 7 104110320.948 7        43.600          44.300          47.300          43.700          47.000
E24  21983262.328 8  21983276.309 8  21983247.816 8  21983275.770 8  21983276.742 8 115522820.525 8  86267097.584 8  93768461.632 8  88517540.166 8  87392321.478 8        50.300          49.800          53.600          49.100          52.500
E25  23387663.914 8  23387667.367 8  23387655.957 8  23387667.070 8  23387667.910 8 122903003.101 8  91778229.362 8  99758894.937 8  94172442.633 8  92975338.599 8        49.900          49.200          53.500          48.800          52.100
G06  25048547.406 6  25048555.961 3  25048556.637 6  25048557.230 6 131630994.655 6 102569650.260 3 102569614.243 6  98295879.194 6        39.000          21.800          37.600          41.100
G10  24507893.734 6  24507900.578 3  24507900.395 6  24507898.770 7 128789846.431 6 100355754.720 3 100355756.729 6  96174259.578 7        40.400          22.500          39.900          42.600
G12  21440369.031 8  21440373.117 6  21440373.340 7                 112669898.694 8  87794742.196 6  87794743.199 7                        48.700          36.200          43.000
G13  23981682.031 6  23981687.086 3                                 126024586.636 6  98200997.979 3                                        41.000          22.600
G15  22524580.273 8  22524584.492 5  22524584.754 6                 118367466.035 8  92234407.686 5  92234409.695 6                        48.300          33.600          41.200
G17  22379925.250 8  22379929.168 5  22379928.945 6                 117607297.768 8  91642066.941 5  91642067.944 6                        49.800          35.100          41.600
G19  21058470.719 8  21058473.277 6                                 110663012.381 8  86230926.508 6                                        48.000          38.300
G20  25169648.031 5                                                 132267380.462 5                                                        35.300
G24  20236461.430 8  20236467.887 7  20236467.875 8  20236468.262 9 106343322.973 8  82864951.397 7  82864953.416 8  79412247.163 9        50.000          43.400          48.400          55.300
G25  24809278.523 5  24809287.523 3  24809287.875 6  24809287.773 6 130373669.418 5 101589885.498 3 101589848.518 6  97356937.364 6        35.000          18.600          37.300          40.000
G28  25168059.484 5  25168065.281 2                                 132259045.547 5 103059022.060 2                                        33.700          16.900
G32  25501362.008 5                  25501370.883 5  25501368.961 6                                 104423821.95915 100072829.954 6        32.000                          31.200          36.000
I02  37531439.180 6 147281422.961 6        40.200
I03  40901504.648 6 160506286.566 6        39.500
I06  38222625.945 6 149993823.810 6        39.700
R04  21798993.938 7  21798992.578 6  21798996.801 7  21798995.648 7 116732614.206 7 116732611.227 6  90792031.811 7  90791846.806 7        45.000          40.700          42.600          42.200
R05  21248267.258 7  21248266.141 7  21248269.922 7  21248269.137 7 113584157.890 7 113584403.897 7  88343421.694 7  88343337.682 7        47.900          42.500          42.600          42.100
R13  21627237.711 6  21627235.895 6  21627240.793 6  21627239.828 6 115488240.805 6 115488235.797 6  89824183.017 6  89824058.012 6        40.800          37.900          37.900          37.600
R14  19467371.727 8  19467370.898 7  19467374.543 7  19467374.520 7 103772041.007 8 103772044.009 7  80711589.573 7  80711681.562 7        50.300          45.100          44.500          44.000
R15  21548302.828 7  21548302.332 6  21548304.309 7  21548305.066 6 115147589.461 7 115147589.474 6  89559236.818 7  89559579.815 6        46.000          41.100          42.100          41.700
R17  24159500.180 6  24159498.152 6                  24159503.480 5 129282357.626 6 129282353.622 6                 100552948.805 5        41.000          39.000                          31.200
R22  23982118.016 6  23982116.813 5  23982119.973 6  23982120.887 6 128018172.821 6 128018173.83115  99569691.519 6  99569673.480 6        36.100          34.100          38.400          38.600
R23  20762023.344 8  20762022.219 7  20762026.547 6  20762027.984 6 111062823.880 8 111062818.892 7  86382192.943 6  86382280.924 6        49.800          43.300          39.500          39.100
R24  21325337.109 6  21325335.363 6  21325338.527 5  21325337.035 5 114036156.696 6 114036148.698 6  88694784.08115  88695175.072 5        41.600          39.000          32.500          32.600
S36  38330737.234 6  38330724.957 6 201429375.298 6 150418000.774 6        41.800          41.300
> 2019 03 21 12 01 30.0000000  0 42
C05  39424722.688 5  39424713.402 6  39424718.379 6 205294873.568 5 166818864.970 6 158747002.257 6        35.900          40.500          39.800
C08  39070422.008 6  39070408.645 6  39070415.852 6 203449933.870 6 165319764.794 6 157320397.870 6        40.100          41.700          40.900
C10  40712993.672 6  40712982.883 5  40712992.121 5 212003238.033 6 172269955.335 5 163934344.828 5        37.200          34.200          34.300
C13  39325657.938 6  39325651.637 6  39325660.316 6 204779022.136 6 166399700.297 6 158348135.336 6        41.700          41.300          39.400
C14  24701200.906 6  24701188.852 7  24701197.270 7 128625635.514 6 104518866.419 7  99461481.918 7        41.700          44.300          42.900
C21  25098997.148 7  25098986.168 7                 130697063.675 7 106202021.264 7                        43.400          43.700
C26  24219988.953 7  24219981.754 7                 126119837.409 7 102482668.384 7                        44.500          44.400
C27  27111521.609 5  27111515.773 4                                                                        34.600          29.500
C29  23188421.547 7  23188412.559 7                 120748193.281 7  98117761.397 7                        47.900          45.400
C30  23640621.070 7  23640615.082 7                 123102915.603 7 100031178.118 7                        47.600          44.400
E02  27937758.641 6  27937763.188 6  27937753.438 6  27937763.277 6  27937763.723 7 146813912.800 6 109633784.073 6 119167111.074 6 112493790.423 6 111063791.850 7        41.200          38.300          40.100          39.300          42.200
E03  25119552.641 7  25119556.457 7  25119545.621 8  25119555.922 7  25119556.949 8 132004139.731 7  98574533.276 7 107146184.210 8 101146042.435 7  99860290.960 8        47.000          46.500          49.500          45.700          48.800
E05  26205192.750 7  26205198.086 7  26205185.438 7  26205197.496 7  26205198.324 7 137709215.277 7 102834822.583 7 111776926.196 7 105517468.738 7 104176148.259 7        44.000          44.500          47.300          44.300          47.400
E24  21989942.484 8  21989956.402 8  21989927.867 8  21989955.625 8  21989956.738 8 115557923.933 8  86293311.156 8  93796954.661 8  88544437.582 8  87418876.972 8        50.800          49.800          53.700          49.200          52.500
E25  23380983.820 8  23380987.199 8  23380975.852 8  23380986.684 8  23380987.688 8 122867898.162 8  91752014.651 8  99730400.687 8  94145544.054 8  92948781.955 8        49.700          49.300          53.700          49.000          52.100
G06  25031272.375 6  25031280.840 3  25031281.063 6  25031282.348 7 131540212.527 6 102498911.018 3 102498875.015 6  98228087.418 7        38.900          22.200          37.900          42.100
G10  24515432.836 6  24515440.488 3  24515439.895 6  24515438.492 7 128829465.966 6 100386627.035 3 100386629.047 6  96203845.550 7        40.800          22.900          40.300          42.600
G12  21426154.906 8  21426158.660 6  21426158.930 7                 112595203.007 8  87736537.800 6  87736538.805 7                        48.600          36.700          43.400
G13  24003811.914 6  24003817.102 3                                 126140879.599 6  98291615.830 3                                        41.700          22.200
G15  22542306.516 8  22542310.859 5  22542311.184 7                 118460617.632 8  92306993.313 5  92306995.325 7                        48.900          33.400          42.200
G17  22389794.188 8  22389797.629 5  22389797.891 7                 117659157.712 8  91682477.295 5  91682478.292 7                        49.600          35.200          42.600
G19  21057711.117 8  21057712.855 6                                 110659016.368 8  86227812.742 6                                        48.900          38.100
G20  25183860.500 5                                                                                                                        32.500
G24  20233334.375 8  20233340.594 7  20233341.117 8  20233341.035 9 106326888.998 8  82852145.715 7  82852147.726 8  79399975.044 9        50.000          43.700          48.500          55.300
G25  24789408.359 5  24789417.723 3  24789417.723 6  24789418.352 6 130269253.691 5 101508522.664 3 101508485.690 6  97278964.634 6        34.500          19.000          38.100          40.800
G28  25185407.438 6  25185412.043 3                                 132350204.783 6 103130055.175 3                                        36.900          19.000
G32  25481855.891 5                                  25481860.836 5 133908071.338 5                                  99996276.992 5        35.600                                          34.100
I02  37534077.570 6 147291776.059 6        40.400
I03  40901685.742 6 160507001.455 6        38.800
I06  38223070.094 6 149995569.652 6        39.500
R04  21818756.578 7  21818755.980 6  21818759.293 7  21818759.430 7 116838447.794 7 116838444.792 6  90874346.764 7  90874161.775 7        44.700          41.900          42.600          42.300
R05  21249208.906 8  21249208.195 7  21249212.184 7  21249211.613 7 113589195.741 8 113589441.749 7  88347340.023 7  88347256.026 7        48.100          43.100          44.100          43.300
R13  21643009.516 6  21643007.297 6  21643010.809 6  21643011.441 6 115572460.242 6 115572455.246 6  89889686.998 6  89889561.996 6        41.000          38.700          38.100          37.800
R14  19467509.813 8  19467509.039 7  19467513.207 7  19467512.754 7 103772777.767 8 103772780.769 7  80712162.619 7  80712254.608 7        50.500          45.200          45.500          45.500
R15  21532682.594 7  21532682.242 7  21532684.773 7  21532685.195 7 115064121.059 7 115064121.076 7  89494316.995 7  89494659.992 7        46.000          42.400          43.000          42.400
R17  24133802.063 6  24133801.082 6  24133807.859 5  24133807.066 5 129144852.221 6 129144848.225 6 100445988.465 5 100446000.465 5        41.800          39.000          33.600          33.600
R22  24003298.547 5  24003298.590 5  24003302.516 6  24003303.066 6 128131244.467 5 128131227.459 5  99657636.009 6  99657618.010 6        35.500          33.700          39.200          39.400
R23  20763086.484 8  20763085.242 7  20763089.949 6  20763091.488 6 111068512.536 8 111068507.540 7  86386617.459 6  86386705.455 6        48.700          44.100          40.500          38.800
R24  21306663.148 6  21306662.465 6  21306664.441 5  21306664.527 5 113936306.841 6 113936298.858 6  88617124.156 5  88617514.119 5        41.400          39.100          32.200          32.300
S27  39188630.188 5  39188623.766 6 205937627.072 5                        31.800          37.700
S28  40854860.078 5  40854844.516 6 214693716.663 5                        33.400          37.900
S36  38330785.344 7  38330772.836 7 201429624.884 7 150418189.181 7        42.000          42.100
> 2019 03 21 12 02 00.0000000  0 41
C05  39424346.469 6  39424336.930 6  39424341.805 6 205292912.743 6 166817271.620 6 158745486.011 6        36.200          40.600          39.900
C08  39064619.672 6  39064606.344 7  39064613.773 6 203419720.788 6 165295214.224 7 157297035.240 6        40.400          42.200          41.500
C10  40717467.109 6  40717456.531 5  40717465.383 5 212026534.245 6 172288885.398 5 163952358.919 5        36.800          34.200          33.600
C13  39316031.719 6  39316025.211 6  39316033.910 6 204728894.839 6 166358967.785 6 158309373.768 6        41.800          41.400          39.900
C14  24704553.969 7  24704542.227 7  24704550.516 7 128643097.556 7 104533055.738 7  99474984.644 7        42.000          43.900          43.300
C21  25114382.508 7  25114370.867 7                 130777177.914 7 106267120.605 7                        43.000          43.200
C26  24205208.461 7  24205201.070 7                 126042871.049 7 102420126.934 7                        44.800          45.200
C29  23175925.852 8  23175917.219 7                 120683126.497 8  98064889.313 7                        49.200          46.000
C30  23646013.250 7  23646007.367 7                 123130994.304 7 100053994.376 7                        47.200          44.900
E02  27923689.039 6  27923694.355 6  27923683.910 6  27923692.949 6  27923693.977 7 146739976.559 6 109578572.065 6 119107097.954 6 112437138.045 6 111007859.661 7        41.200          39.600          40.600          38.200          42.300
E03  25123961.758 7  25123965.531 7  25123954.668 8  25123965.004 7  25123965.988 8 132027309.676 7  98591835.495 7 107164990.969 8 101163796.018 7  99877818.856 8        47.300          46.300          49.500          45.500          48.900
E05  26221688.367 7  26221693.652 7  26221681.305 7  26221693.207 7  26221693.988 7 137795900.685 7 102899555.125 7 111847287.682 7 105583889.966 7 104241725.151 7        44.300          44.400          47.300          44.500          47.000
E24  21996562.305 8  21996576.293 8  21996547.719 8  21996575.527 8  21996576.613 8 115592711.737 8  86319289.062 8  93825191.503 8  88571093.176 8  87445193.725 8        51.000          49.800          53.700          49.100          52.500
E25  23374245.313 8  23374248.492 8  23374237.156 8  23374248.152 8  23374249.059 8 122832486.849 8  91725571.155 8  99701657.746 8  94118410.726 8  92921993.542 8        50.100          49.400          53.700          48.800          52.100
G06  25013920.289 6  25013928.820 3  25013929.227 6  25013930.188 7 131449027.835 6 102427858.090 3 102427822.109 6  98159995.058 7        38.600          22.300          38.300          42.000
G10  24522969.383 6  24522976.934 4  24522976.883 6  24522975.293 7 128869071.477 6 100417488.443 4 100417490.443 6  96233421.053 7        40.900          24.000          39.900          42.500
G12  21411913.133 8  21411917.098 6  21411917.527 7                 112520362.704 8  87678220.703 6  87678221.708 7                        49.800          37.000          44.000
G13  24025871.367 6  24025876.730 3                                 126256802.103 6  98381944.978 3                                        41.100          22.800
G15  22559997.617 8  22560001.770 5  22560001.926 7                 118553584.502 8  92379434.995 5  92379437.007 7                        48.800          33.600          42.000
G17  22399660.859 8  22399664.855 5  22399664.488 7                 117711009.480 8  91722881.269 5  91722882.277 7                        49.000          35.000          42.700
G19  21056987.422 7  21056989.379 6                                 110655214.277 7  86224850.077 6                                        47.600          38.100
G24  20230198.484 8  20230204.531 7  20230204.813 8  20230204.969 9 106310409.196 8  82839304.310 7  82839306.321 8  79387668.709 9        51.500          43.900          48.900          55.300
G25  24769467.617 5  24769477.309 2  24769477.188 6  24769477.375 6 130164464.056 5 101426868.455 2 101426831.460 6  97200712.709 6        35.200          16.900          38.000          41.600
G28  25202657.320 5  25202662.453 2                                 132440856.459 5 103200692.850 2                                        35.700          15.600
G32  25462290.680 6                                  25462298.414 5 133805258.085 6                                  99919500.817 5        37.400                                          33.300
I02  37536628.070 6 147301788.151 6        40.200
I03  40901775.969 6 160507352.275 6        38.700
I06  38223424.477 6 149996959.048 6        39.700
R04  21838510.516 7  21838509.426 6  21838512.867 7  21838512.875 7 116944227.188 7 116944224.199 6  90956619.598 7  90956434.595 7        44.900          41.900          43.200          42.700
R05  21250214.938 8  21250214.270 7  21250217.586 7  21250217.422 7 113594574.106 8 113594820.113 7  88351523.197 7  88351439.193 7        48.000          44.100          43.800          43.100
R06  23908874.727 5  23908872.336 5                                 127582339.506 5                                                        33.700          32.700
R13  21658726.305 6  21658725.227 6  21658729.914 6  21658728.746 6 115656389.488 6 115656384.480 6  89954965.252 6  89954840.263 6        40.700          38.700          38.300          38.300
R14  19467628.367 8  19467627.172 7  19467631.230 7  19467630.852 7 103773407.839 8 103773410.843 7  80712652.676 7  80712744.665 7        50.600          45.500          46.100          45.300
R15  21517003.586 7  21517003.875 7  21517006.965 7  21517006.832 7 114980340.590 7 114980340.602 7  89429154.439 7  89429497.436 7        45.800          43.400          43.900          43.300
R17  24108005.789 7  24108004.500 6  24108010.117 5  24108010.320 5 129006811.447 7 129006807.454 6 100338623.738 5 100338635.739 5        42.200          39.600          34.800          34.500
R22  24024462.688 5  24024461.313 5  24024465.465 6  24024465.613 6 128244211.537 5 128244194.552 5  99745499.200 6  99745481.204 6        35.100          35.200          38.900          38.200
R23  20764218.594 8  20764216.941 7  20764222.047 6  20764223.148 6 111074566.793 8 111074561.797 7  86391326.338 6  86391414.341 6        48.700          44.500          40.100          38.700
R24  21288000.422 7  21288000.512 6  21288001.289 5  21288002.738 5 113836513.432 7 113836505.441 6  88539505.054 5  88539897.057 5        42.100          39.900          32.400          32.500
S27  39188631.969 5  39188627.008 6 205937645.305 5                        32.200          37.600
S28  40854822.875 5  40854806.660 6 214693519.834 5                        32.600          37.800
S36  38330740.031 6  38330728.711 7 201429397.085 6 150418016.638 7        41.300          42.600
> 2019 03 21 12 02 30.0000000  0 41
C05  39424019.516 6  39424010.625 6  39424015.457 6 205291213.740 6 166815891.023 6 158744172.218 6        36.300          40.600          39.900
C08  39058903.938 6  39058890.660 7  39058897.711 6 203389956.337 6 165271028.176 7 157274019.488 6        40.200          43.100          41.100
C10  40721989.477 6  40721978.246 5  40721986.895 5 212050081.007 6 172308019.054 5 163970566.743 5        36.700          34.600          33.900
C13  39306481.328 6  39306474.836 6  39306483.453 6 204679162.992 6 166318556.613 6 158270917.973 6        41.900          41.600          39.500
C14  24708050.469 6  24708038.391 7  24708046.703 7 128661302.716 6 104547848.920 7  99489062.016 7        41.500          44.000          43.300
C21  25129856.852 7  25129846.152 7                 130857759.764 7 106332599.910 7                        44.000          43.700
C26  24190497.828 7  24190490.430 7                 125966268.202 7 102357880.876 7                        45.000          45.400
C29  23163556.672 8  23163548.355 7                 120618717.589 8  98012551.818 7                        48.500          46.700
C30  23651551.859 7  23651545.820 7                 123159834.759 7 100077429.616 7                        47.800          45.400
E02  27909677.094 7  27909681.375 6  27909671.781 6  27909680.574 6  27909681.953 7 146666343.568 7 109523586.479 6 119047330.975 6 112380718.031 6 110952156.853 7        42.100          37.900          40.800          38.300          42.200
E03  25128502.109 7  25128505.641 7  25128494.629 8  25128505.422 7  25128506.258 8 132051168.727 7  98609652.298 7 107184357.073 8 101182077.623 7  99895868.062 8        47.900          46.300          49.300          46.200          49.100
E05  26238263.070 7  26238268.215 7  26238255.684 7  26238267.789 7  26238268.656 7 137883000.611 7 102964597.207 7 111917985.631 7 105650628.814 7 104307615.610 7        43.800          45.200          47.200          44.800          47.700
E24  22003264.258 8  22003278.172 8  22003249.574 8  22003277.898 8  22003278.664 8 115627931.067 8  86345589.208 8  93853778.620 8  88598079.413 8  87471836.913 8        50.700          49.800          53.700          49.000          52.400
E25  23367590.313 8  23367593.934 8  23367582.320 8  23367593.789 8  23367594.488 8 122797516.658 8  91699457.059 8  99673272.861 8  94091615.390 8  92895538.834 8        50.000          49.300          53.700          48.800          52.100
G06  24996633.734 6  24996643.102 3  24996643.422 6  24996644.340 7 131358191.378 6 102357076.532 3 102357040.543 6  98092162.773 7        37.700          21.100          38.700          42.300
G10  24530645.813 6  24530652.941 3  24530652.371 6  24530651.152 7 128909408.357 6 100448919.727 3 100448921.734 6  96263542.721 7        39.900          22.800          39.600          42.900
G12  21397786.352 8  21397790.281 6  21397790.707 7                 112446125.356 8  87620373.452 6  87620374.455 7                        49.600          36.100          43.700
G13  24048001.969 6  24048006.996 3                                 126373098.827 6  98472565.724 3                                        40.600          21.700
G15  22577795.125 8  22577799.660 5  22577799.613 7                 118647111.453 8  92452313.105 5  92452315.096 7                        48.500          33.600          42.500
G17  22409668.570 8  22409672.266 5  22409672.328 7                 117763598.574 8  91763859.783 5  91763860.786 7                        50.000          35.000          43.100
G19  21056443.016 8  21056444.844 6                                 110652353.163 8  86222620.647 6                                        48.300          38.400
G24  20227195.945 8  20227202.234 7  20227202.273 8  20227202.633 9 106294631.658 8  82827010.136 7  82827012.148 8  79375886.788 9        51.400          43.900          48.900          55.300
G25  24749598.875 6  24749606.965 3  24749607.941 6  24749608.098 7 130060049.221 6 101345506.301 3 101345469.307 6  97122740.640 7        36.400          19.300          38.900          42.100
G28  25219954.117 5  25219958.008 2                                 132531747.148 5 103271516.711 2                                        35.200          17.800
G32  25442811.188 6                  25442820.449 5  25442817.141 5 133702896.205 6                 104184051.846 5  99843061.711 5        36.500                          31.400          33.100
I02  37539236.227 6 147312021.045 6        39.800
I03  40901914.789 6 160507897.456 6        38.800
I06  38223830.047 6 149998550.382 6        39.600
R04  21858394.727 7  21858394.293 7  21858397.719 7  21858397.836 7 117050709.618 7 117050706.646 7  91039439.217 7  91039254.220 7        44.500          42.500          43.700          42.700
R05  21251427.289 8  21251426.551 7  21251429.777 7  21251429.797 7 113601052.987 8 113601299.000 7  88356562.326 7  88356478.329 7        48.200          45.000          44.700          44.300
R06  23890472.961 5  23890472.578 5                                 127484150.808 5                                                        34.700          32.800
R13  21674531.219 6  21674530.125 6  21674534.859 6  21674533.637 6 115740787.484 6 115740782.474 6  90020608.127 6  90020483.131 6        40.200          38.900          38.700          38.000
R14  19467868.789 8  19467867.867 7  19467871.453 7  19467871.266 7 103774689.455 8 103774692.449 7  80713649.491 7  80713741.487 7        50.200          46.700          46.900          46.700
R15  21501409.773 7  21501409.188 7  21501412.578 7  21501412.375 7 114897009.121 7 114897009.118 7  89364341.104 7  89364684.107 7        45.400          43.000          43.400          43.200
R17  24082251.797 6  24082250.992 6  24082255.805 6  24082256.988 6 128869000.301 6 128868996.334 6 100231437.601 6 100231449.586 6        41.500          39.900          37.100          36.100
R22  24045746.578 6  24045745.824 6  24045749.570 6  24045749.934 6 128357829.388 6 128357812.409 6  99833868.586 6  99833850.561 6        37.000          36.300          38.800          38.300
R23  20765560.438 8  20765559.461 7  20765563.938 6  20765565.449 6 111081747.470 8 111081742.474 7  86396911.323 6  86396999.325 6        49.400          45.100          40.400          39.600
R24  21269492.570 7  21269492.367 6  21269494.336 5  21269494.086 5 113737541.030 7 113737533.038 6                  88462918.556 5        42.300          40.000          32.500          32.400
S27  39188684.391 5  39188680.656 6 205937923.475 5                        33.000          38.700
S28  40854835.781 5  40854819.617 6 214693588.204 5                        32.600          37.700
S36  38330746.984 6  38330735.188 7 201429426.212 6 150418038.775 7        41.800          42.900
> 2019 03 21 12 03 00.0000000  0 40
C05  39423693.016 6  39423684.008 6  39423688.883 6 205289513.025 6 166814509.029 6 158742857.087 6        36.600          39.400          39.500
C08  39053223.367 6  39053210.285 6  39053217.441 6 203360377.395 6 165246992.881 6 157251147.197 6        39.400          41.400          40.800
C10  40726508.133 6  40726497.996 5  40726506.676 5 212073615.014 6 172327142.322 5 163988764.698 5        37.600          33.400          33.900
C13  39296955.867 7  39296949.711 6  39296958.359 6 204629563.486 7 166278252.971 6 158232564.516 6        42.200          40.900          39.400
C14  24711639.289 7  24711626.504 7  24711635.039 7 128679986.909 7 104563031.343 7  99503509.809 7        42.100          43.000          42.500
C21  25145370.250 7  25145359.836 7                 130938543.489 7 106398243.264 7                        43.500          42.000
C26  24175806.992 7  24175798.898 7                 125889766.423 7 102295716.944 7                        44.500          43.900
C29  23151263.453 8  23151255.270 7                 120554705.186 8  97960536.516 7                        48.800          44.800
C30  23657185.883 7  23657179.797 7                 123189172.786 7 100101269.177 7                        47.200          43.700
E02  27895672.195 6  27895677.137 6  27895667.273 6  27895676.051 6  27895677.078 6 146592748.258 6 109468629.014 6 118987594.587 6 112324326.866 6 110896482.555 6        41.200          37.900          41.600          38.200          41.400
E03  25133122.742 7  25133126.262 7  25133115.395 8  25133126.590 7  25133126.930 8 132075450.603 7  98627784.865 7 107204066.380 8 101200683.209 7  99914237.143 8        47.700          45.700          49.300          45.400          48.500
E05  26254865.414 7  26254870.727 7  26254858.457 7  26254870.633 7  26254871.223 7 137970247.510 7 103029749.056 7 111988802.873 7 105717480.279 7 104373617.278 7        44.600          44.300          47.300          43.600          47.000
E24  22009997.727 8  22010011.637 8  22009983.258 8  22010011.508 8  22010012.168 8 115663315.889 8  86372012.929 8  93882500.065 8  88625192.452 8  87498605.294 8        51.300          49.800          53.700          49.000          52.500
E25  23360969.195 8  23360972.730 8  23360961.262 8  23360972.543 8  23360973.254 8 122762722.021 8  91673474.061 8  99645030.471 8  94064954.578 8  92869216.923 8        49.600          49.300          53.700          48.900          52.200
G06  24979365.297 6  24979374.348 3  24979373.688 6  24979374.793 7 131267440.415 6 102286361.584 3 102286325.616 6  98024394.313 7        37.600          21.100          38.700          42.800
G10  24538410.008 6  24538416.641 3  24538415.930 6  24538415.379 7 128950208.930 6 100480712.348 3 100480714.354 6  96294010.602 7        40.500          22.900          39.000          42.500
G12  21383723.445 8  21383727.695 6  21383727.855 7                 112372226.333 8  87562789.826 6  87562790.823 7                        48.500          36.300          42.500
G13  24070152.164 6  24070157.652 3                                 126489501.992 6  98563269.422 3                                        40.500          22.500
G15  22595648.461 8  22595652.750 5  22595652.875 6                 118740930.355 8  92525418.709 5  92525420.698 6                        48.200          32.900          41.100
G17  22419765.102 8  22419768.766 5  22419769.063 6                 117816656.933 8  91805203.951 5  91805204.959 6                        49.100          34.100          41.900
G19  21056027.281 7  21056028.965 6                                 110650167.363 7  86220917.437 6                                        47.800          37.900
G24  20224276.727 8  20224283.055 7  20224283.137 8  20224283.395 9 106279291.013 8  82815056.389 7  82815058.401 8  79364431.117 9        51.000          43.500          48.700          55.200
G25  24729749.539 5  24729758.422 3  24729758.559 6  24729759.188 6 129955744.366 5 101264229.850 3 101264192.917 6  97044850.752 6        35.500          19.300          38.400          41.900
G28  25237244.336 6  25237249.238 3                                 132622610.301 6 103342319.095 3                                        37.400          19.300
G32  25423367.953 6  25423375.203 2                  25423375.074 5 133600722.347 6 104104469.823 2                  99766763.085 5        37.700          16.900                          33.400
I02  37541849.367 6 147322274.074 6        39.900
I03  40902052.563 6 160508438.368 6        38.400
I06  38224236.430 6 150000145.044 6        40.300
R04  21878360.188 7  21878359.191 6  21878363.094 7  21878362.711 7 117157620.211 7 117157617.232 6  91122591.851 7  91122406.842 7        44.500          40.900          42.000          42.000
R05  21252794.500 8  21252794.316 7  21252797.000 7  21252796.703 7 113608361.352 8 113608607.368 7  88362246.618 7  88362162.622 7        48.100          42.700          42.300          42.100
R13  21690372.906 6  21690372.324 6  21690377.180 6  21690375.902 6 115825383.609 6 115825378.603 6  90086405.077 6  90086280.087 6        40.500          37.600          38.300          37.700
R14  19468180.500 8  19468179.926 7  19468183.449 7  19468183.500 7 103776353.372 8 103776356.375 7  80714943.660 7  80715035.649 7        50.800          45.300          44.700          43.600
R15  21485848.789 7  21485848.922 6  21485850.871 7  21485851.770 7 114813857.273 7 114813857.285 6  89299667.487 7  89300010.482 7        46.400          41.300          42.500          42.100
R17  24056491.516 6  24056490.734 6  24056495.539 6  24056496.375 6 128731151.757 6 128731147.771 6 100124222.313 6 100124234.312 6        40.900          37.700          37.200          36.000
R22  24067103.297 6  24067101.191 6  24067105.309 6  24067105.734 6 128471823.893 6 128471806.914 6  99922530.885 6  99922512.874 6        38.800          36.300          40.300          38.900
R23  20767062.898 8  20767061.836 7  20767065.723 6  20767067.508 6 111089783.505 8 111089778.509 7  86403161.596 6  86403249.584 6        49.400          43.700          39.500          39.100
R24  21251088.539 7  21251087.527 6  21251090.449 5  21251089.695 5 113639123.718 7 113639115.735 6                  88386371.794 5        42.500          39.200          32.600          31.500
S27  39188739.031 5  39188744.520 6 205938208.199 5                        32.600          36.400
S28  40854847.906 5  40854832.684 6 214693654.656 5                        33.200          37.500
S36  38330753.734 6  38330741.512 6 201429458.702 6 150418063.954 6        41.300          40.900
> 2019 03 21 12 03 30.0000000  0 40
C05  39423366.797 6  39423357.293 6  39423361.805 6 205287811.237 6 166813126.193 6 158741541.160 6        36.200          39.900          38.900
C08  39047579.430 6  39047565.477 6  39047573.262 6 203330984.600 6 165223108.852 6 157228418.842 6        40.400          41.300          40.900
C10  40731026.086 6  40731015.406 5  40731024.051 5 212097136.777 6 172346255.682 5 164006953.216 5        36.100          34.200          33.800
C13  39287456.727 7  39287450.059 6  39287458.551 6 204580097.510 7 166238057.850 6 158194314.325 6        42.300          41.000          39.900
C14  24715318.219 6  24715306.461 7  24715315.016 7 128699149.534 6 104578602.530 7  99518327.560 7        41.400          43.300          42.000
C21  25160922.422 7  25160911.910 7                 131019526.899 7 106464048.875 7                        42.900          42.200
C26  24161134.930 7  24161127.180 7                 125813366.777 7 102233635.986 7                        44.700          43.700
C29  23139047.945 8  23139038.852 7                 120491091.447 8  97908845.165 7                        48.700          44.700
C30  23662915.188 7  23662909.152 7                 123219007.649 7 100125512.456 7                        46.700          43.200
E02  27881674.844 6  27881679.055 6  27881669.453 6  27881678.547 6  27881679.586 6 146519191.137 6 109413700.048 6 118927889.189 6 112267964.985 6 110840837.127 6        41.300          37.900          41.200          38.600          41.600
E03  25137823.883 7  25137827.551 7  25137816.523 8  25137827.168 7  25137827.992 8 132100155.014 7  98646232.960 7 107224118.655 8 101219612.558 7  99932925.858 8        47.600          45.700          49.400          45.100          48.500
E05  26271495.906 7  26271501.020 7  26271488.578 7  26271500.695 7  26271501.453 7 138057639.850 7 103095009.503 7 112059738.169 7 105784443.185 7 104439728.946 7        44.300          43.900          47.200          43.600          46.800
E24  22016762.852 8  22016776.660 8  22016748.176 8  22016776.266 8  22016777.148 8 115698866.163 8  86398560.202 8  93911355.805 8  88652432.264 8  87525498.839 8        50.900          49.800          53.600          49.000          52.500
E25  23354381.719 8  23354385.000 8  23354373.469 8  23354384.676 8  23354385.496 8 122728103.312 8  91647622.446 8  99616930.884 8  94038428.568 8  92843028.102 8        50.300          49.400          53.700          48.900          52.200
G06  24962112.727 5  24962120.969 3  24962121.387 6  24962122.434 7 131176778.514 5 102215716.092 3 102215680.069 6  97956692.361 7        35.500          19.900          38.800          42.800
G10  24546262.266 6  24546269.215 3  24546268.688 6  24546267.043 7 128991471.424 6 100512864.912 3 100512866.916 6  96324823.464 7        41.100          22.600          39.200          42.500
G12  21369725.852 8  21369729.824 6  21369730.074 7                 112298666.933 8  87505470.835 6  87505471.832 7                        50.000          36.800          42.800
G13  24092323.414 6  24092328.563 3                                 126606009.042 6  98654054.057 3                                        40.700          21.800
G15  22613556.203 8  22613560.969 5  22613560.602 6                 118835038.633 8  92598749.800 5  92598751.809 6                        48.100          32.700          41.200
G17  22429951.156 8  22429954.609 5  22429954.574 7                 117870183.427 8  91846912.902 5  91846913.903 7                        49.200          34.900          42.100
G19  21055740.094 8  21055741.496 6                                 110648657.441 8  86219740.887 6                                        49.100          38.100
G24  20221441.055 8  20221447.129 7  20221447.320 8  20221447.625 9 106264389.107 8  82803444.518 7  82803446.523 8  79353303.070 9        51.100          43.600          48.500          55.200
G25  24709922.305 5  24709931.117 3  24709931.262 6  24709932.207 7 129851551.234 5 101183040.521 3 101183003.494 6  96967044.229 7        35.500          19.600          37.900          42.700
G28  25254529.750 6  25254534.199 3                                 132713445.566 6 103413099.806 3                                        38.900          18.600
G32  25403961.430 6  25403968.066 2  25403968.984 5  25403967.875 5 133498739.769 6 104025002.827 2 104024970.859 5  99690607.219 5        37.700          17.800          33.900          35.000
I02  37544467.063 6 147332548.354 6        40.500
I03  40902190.094 6 160508975.469 6        38.700
I06  38224643.859 6 150001743.563 6        40.000
