     3.04           OBSERVATION DATA    G                   RINEX VERSION / TYPE
cnvtToRINEX 3.08.0  convertToRINEX OPR  30-Jul-19 16:30 UTC PGM / RUN BY / DATE 
gfzrnx-1.11-7513    FILE MERGE          20190804 143418 UTC COMMENT             
JABO                                                        MARKER NAME         
  4035865.6251  1285295.6017  4753013.9424                  APPROX POSITION XYZ 
JABO                                                        MARKER NUMBER       
----------------------------------------------------------- COMMENT             
        0.2830        0.0000        0.0000                  ANTENNA: DELTA H/E/N
DBHZ                                                        SIGNAL STRENGTH UNIT
GKU                 GKU                                     OBSERVER / AGENCY   
    18                                                      LEAP SECONDS        
40932194            TRM55971.00     NONE                    ANT # / TYPE        
     0                                                      RCV CLOCK OFFS APPL 
G L2X -0.25000                                              SYS / PHASE SHIFT   
5207K82278          TRIMBLE NETR9       5.37                REC # / TYPE / VERS 
GEODETIC                                                    MARKER TYPE         
G   12 C1C C2W C2X C5X L1C L2W L2X L5X S1C S2W S2X S5X      SYS / # / OBS TYPES 
     1.000                                                  INTERVAL            
  2019     3    21    12    42   46.0000000     GPS         TIME OF FIRST OBS   
  2019     3    21    12    42   50.0000000     GPS         TIME OF LAST OBS    
                                                            END OF HEADER  
> 2019 03 21 12 42 46.0000000  0 12
G02  24651402.313 6  24651406.406 3                                 129544067.594 6 100943409.607 3                                        39.800          21.100
G06  23710548.031 7  23710555.117 4  23710555.395 6  23710556.352 7 124599856.959 7  97090792.144 4  97090762.160 6  93045315.341 7        42.300          27.000          39.900          46.600
G10  25400120.594 4  25400128.613 2  25400128.527 6  25400127.684 7 133478469.221 4 104009273.296 2 104009200.350 6  99675515.219 7        28.300          15.600          41.600          42.600
G12  20484712.828 8  20484716.098 6  20484716.039 7                 107647950.124 8  83881545.325 6  83881514.327 7                        51.500          40.500          47.800
G13  25857309.523 5                                                 135881075.401 5                                                        35.900
G14  25512679.203 6  25512681.422 3                                 134070094.811 6 104470166.663 3                                        39.600          20.900
G15  24149232.672 7  24149237.918 4  24149238.031 6                 126905060.134 7  98887075.980 4  98887064.996 6                        42.700          26.200          37.900
G17  23475015.016 7  23475019.465 4  23475019.059 6                 123362105.241 7  96126337.262 4  96126312.287 6                        43.200          29.100          40.900
G19  21425169.336 7  21425170.750 6                                 112590138.845 7  87732560.046 6                                        45.400          37.200
G24  20270465.938 8  20270471.895 7  20270471.969 8  20270472.219 9 106522029.513 8  83004225.642 7  83004183.657 8  79545688.906 9        51.100          45.500          51.900          55.900
G25  23235645.086 7  23235652.250 5  23235652.547 6  23235653.129 7 122104162.758 7  95146143.471 5  95146121.474 6  91181691.078 7        45.100          30.400          40.900          46.700
G32  24035576.805 7  24035582.570 4  24035582.535 6  24035580.477 7 126307854.300 7  98421709.986 4  98421679.998 6  94320767.754 7        42.500          26.400          40.700          44.900
> 2019 03 21 12 42 47.0000000  0 12
G02  24650854.703 6  24650858.168 3                                 129541186.408 6 100941164.517 3                                        40.000          21.700
G06  23710080.523 7  23710087.980 4  23710088.355 6  23710088.840 7 124597401.260 7  97088878.603 4  97088848.631 6  93043481.529 7        42.400          25.000          39.600          46.300
G10  25400566.914 4  25400573.293 2  25400573.168 6  25400572.570 7 133480806.219 4 104011094.397 2 104011021.430 6  99677260.381 7        28.000          15.600          41.600          42.600
G12  20484431.211 8  20484434.488 6  20484434.465 8                 107646469.595 8  83880391.665 6  83880360.660 8                        51.400          41.400          48.000
G13  25858053.336 5                                                 135884982.526 5                                                        35.200
G14  25512069.273 6  25512071.988 3                                 134066892.470 6 104467671.333 3                                        39.200          20.400
G15  24149921.352 7  24149925.930 4  24149925.898 6                 126908675.397 7  98889893.068 4  98889882.067 6                        43.000          26.500          38.300
G17  23475546.523 7  23475551.055 4  23475550.352 6                 123364898.971 7  96128514.201 4  96128489.196 6                        43.400          29.000          41.100
G19  21425482.438 7  21425484.191 6                                 112591786.267 7  87733843.752 6                                        45.500          37.100
G24  20270603.703 8  20270609.801 7  20270609.547 8  20270609.980 9 106522753.551 8  83004789.833 7  83004747.834 8  79546229.582 9        51.100          45.300          51.900          56.000
G25  23235060.508 7  23235067.742 5  23235067.934 6  23235068.730 7 122101090.931 7  95143749.849 5  95143727.824 6  91179397.179 7        45.000          30.200          41.100          46.700
G32  24035078.617 7  24035084.129 4  24035084.922 6  24035082.379 7 126305236.431 7  98419670.087 4  98419640.117 6  94318812.862 7        42.400          26.900          40.700          44.700
> 2019 03 21 12 42 48.0000000  0 12
G02  24650306.828 6  24650309.922 3                                 129538305.330 6 100938919.521 3                                        40.300          20.900
G06  23709612.938 7  23709620.773 3  23709621.262 6  23709621.773 7 124594945.903 7  97086965.346 3  97086935.374 6  93041647.998 7        42.300          23.900          39.600          46.700
G10  25401012.602 4  25401017.969 2  25401017.934 6  25401017.566 7 133483143.522 4 104012915.652 2 104012842.670 6  99679005.778 7        28.300          15.600          41.100          42.500
G12  20484149.555 8  20484152.777 6  20484152.727 8                 107644989.479 8  83879238.326 6  83879207.328 8                        51.200          41.100          48.100
G13  25858796.430 5                                                 135888889.574 5                                                        35.500
G14  25511460.664 6  25511462.844 3                                 134063690.337 6 104465176.144 3                                        39.300          20.600
G15  24150608.273 7  24150613.988 4  24150613.715 6                 126912290.739 7  98892710.213 4  98892699.208 6                        42.700          26.700          38.400
G17  23476078.289 7  23476082.840 4  23476082.414 6                 123367692.983 7  96130691.353 4  96130666.370 6                        43.200          29.100          40.900
G19  21425795.945 7  21425797.945 6                                 112593434.326 7  87735127.956 6                                        45.600          37.600
G24  20270741.594 8  20270747.566 7  20270747.773 8  20270747.961 9 106523478.098 8  83005354.410 7  83005312.412 8  79546770.639 9        51.400          45.600          52.100          56.100
G25  23234476.211 7  23234483.293 5  23234483.887 6  23234484.242 7 122098019.319 7  95141356.383 5  95141334.371 6  91177103.438 7        44.700          30.800          41.100          46.700
G32  24034580.453 7  24034585.867 4  24034586.832 6  24034584.453 7 126302618.996 7  98417630.526 4  98417600.576 6  94316858.301 7        42.400          27.700          40.600          44.700
> 2019 03 21 12 42 49.0000000  0 11
G02  24649757.961 6  24649761.672 3                                 129535424.340 6 100936674.597 3                                        40.100          21.300
G06  23709146.102 7  23709153.586 4  23709153.984 6  23709154.555 7 124592490.976 7  97085052.419 4  97085022.398 6  93039814.764 7        42.600          25.300          39.900          46.900
G12  20483867.891 8  20483871.160 6  20483871.141 8                 107643509.817 8  83878085.344 6  83878054.338 8                        51.300          41.500          48.100
G13  25859540.070 5                                                 135892796.510 5                                                        35.200
G14  25510851.672 6  25510853.520 3                                 134060488.474 6 104462681.191 3                                        39.400          20.900
G15  24151296.984 7  24151302.008 4  24151301.285 6                 126915906.189 7  98895527.442 4  98895516.410 6                        43.000          26.700          38.300
G17  23476610.141 7  23476614.656 4  23476614.074 6                 123370487.379 7  96132868.798 4  96132843.788 6                        43.300          28.900          40.800
G19  21426109.438 7  21426111.539 6                                 112595083.057 7  87736412.683 6                                        45.700          37.100
G24  20270879.594 8  20270885.492 7  20270885.484 8  20270885.844 9 106524203.220 8  83005919.443 7  83005877.451 8  79547312.132 9        51.700          45.000          52.100          56.200
G25  23233891.555 7  23233898.684 5  23233899.469 6  23233899.680 7 122094947.957 7  95138963.118 5  95138941.120 6  91174809.881 7        44.100          30.200          41.300          46.800
G32  24034082.680 7  24034087.785 4  24034088.445 6  24034086.492 7 126300002.043 7  98415591.345 4  98415561.365 6  94314904.077 7        42.700          27.400          40.400          44.900
> 2019 03 21 12 42 50.0000000  0 10
G02  24649209.648 6  24649213.457 3                                 129532543.453 6 100934429.760 3                                        40.300          20.400
G06  23708678.609 7  23708686.535 4  23708687.086 6  23708687.398 7 124590036.399 7  97083139.776 4  97083109.786 6  93037981.804 7        42.300          24.600          39.600          46.500
G12  20483586.281 8  20483589.684 6  20483589.227 8                 107642030.600 8  83876932.709 6  83876901.704 8                        51.400          40.800          48.300
G14  25510242.211 6  25510244.375 3                                 134057286.790 6 104460186.360 3                                        39.000          20.600
G15  24151985.297 7  24151990.059 4  24151990.445 6                 126919521.721 7  98898344.744 4  98898333.731 6                        42.600          24.800          38.100
G17  23477142.234 7  23477146.488 4  23477146.152 6                 123373282.081 7  96135046.492 4  96135021.481 6                        43.900          29.200          40.600
G19  21426423.391 7  21426425.289 6                                 112596732.454 7  87737697.927 6                                        45.800          36.700
G24  20271017.359 8  20271023.555 7  20271023.586 8  20271023.902 9 106524928.891 8  83006484.897 7  83006442.898 8  79547854.024 9        51.000          45.000          52.300          56.200
G25  23233307.164 7  23233314.230 5  23233314.941 6  23233315.363 7 122091876.771 7  95136569.981 5  95136548.009 6  91172516.490 7        44.500          30.300          41.300          46.900
G32  24033584.875 7  24033589.766 4  24033590.742 6  24033588.695 7 126297385.524 7  98413552.498 4  98413522.517 6  94312950.186 7        43.300          27.100          40.700          45.100
