     3.04           OBSERVATION DATA    G                   RINEX VERSION / TYPE
cnvtToRINEX 3.08.0  convertToRINEX OPR  30-Jul-19 16:30 UTC PGM / RUN BY / DATE 
gfzrnx-1.11-7513    FILE MERGE          20190804 143418 UTC COMMENT             
JABO                                                        MARKER NAME         
  4035867.2105  1285295.8164  4753016.7024                  APPROX POSITION XYZ 
JABO                                                        MARKER NUMBER       
----------------------------------------------------------- COMMENT             
        0.2830        0.0000        0.0000                  ANTENNA: DELTA H/E/N
DBHZ                                                        SIGNAL STRENGTH UNIT
GKU                 GKU                                     OBSERVER / AGENCY   
    18                                                      LEAP SECONDS        
40932194            TRM55971.00     NONE                    ANT # / TYPE        
     0                                                      RCV CLOCK OFFS APPL 
G L2X -0.25000                                              SYS / PHASE SHIFT   
5207K82278          TRIMBLE NETR9       5.37                REC # / TYPE / VERS 
GEODETIC                                                    MARKER TYPE         
G   12 C1C C2W C2X C5X L1C L2W L2X L5X S1C S2W S2X S5X      SYS / # / OBS TYPES 
     1.000                                                  INTERVAL            
  2019     3    21    13    42   48.0000000     GPS         TIME OF FIRST OBS   
  2019     3    23    13    42   52.0000000     GPS         TIME OF LAST OBS    
                                                            END OF HEADER   
> 2019 03 21 13 42 48.0000000  0 10
G02  22927849.484 7  22927851.211 5                                 120486755.830 7  93885770.391 5                                        43.900          32.700
G06  22634065.180 7  22634071.754 5  22634071.984 7  22634072.547 8 118942916.867 7  92682790.596 5  92682760.606 7  88820981.325 8        42.300          30.700          43.300          48.400
G12  20012308.289 8  20012311.074 7  20012311.148 8                 105165448.914 8  81947129.223 7  81947098.225 8                        52.300          43.400          50.300
G14  23735033.766 6  23735038.289 3                                 124728530.753 6  97191012.078 3                                        37.700          19.600
G17  25663883.578 6  25663888.469 3  25663887.863 5                 134864671.168 6 105089372.461 3 105089347.491 5                        40.500          21.300          35.700
G19  23222465.602 6  23222468.020 5                                 122034991.176 6  95092183.429 5                                        41.600          30.600
G24  21397367.867 8  21397374.129 6  21397373.977 8  21397374.125 8 112443932.606 8  87618693.930 6  87618651.938 8  83967887.301 8        50.800          40.900          48.000          52.600
G25  21439030.438 8  21439036.152 6  21439036.762 7  21439036.391 8 112662899.648 8  87789318.509 6  87789296.514 7  84131401.240 8        51.200          40.100          47.500          52.100
G29  23307360.469 7  23307366.586 4  23307365.648 6                 122481052.670 7  95439803.298 4  95439807.319 6                        43.200          28.000          40.500
G32  22904313.484 7  22904318.383 5  22904319.504 7  22904317.852 7 120363036.815 7  93789386.206 5  93789356.228 7  89881457.853 7        44.700          32.100          42.800          47.200
> 2019 03 21 13 42 49.0000000  0 10
G02  22927480.328 7  22927482.172 5                                 120484817.497 7  93884260.002 5                                        43.900          32.300
G06  22633968.172 7  22633974.469 5  22633974.641 7  22633975.305 8 118942405.325 7  92682391.994 5  92682361.998 7  88820599.327 8        42.200          30.500          43.300          48.300
G12  20012327.750 8  20012330.520 7  20012330.621 8                 105165550.436 8  81947208.335 7  81947177.329 8                        52.600          43.600          50.700
G14  23734691.781 6  23734696.211 3                                 124726732.756 6  97189611.039 3                                        37.200          19.600
G17  25664533.844 6  25664538.918 3  25664538.988 5                 134868088.691 6 105092035.473 3 105092010.478 5                        40.100          21.100          35.300
G19  23223109.063 6  23223111.250 4                                 122038371.521 6  95094817.459 4                                        41.200          29.600
G24  21397844.469 8  21397850.418 6  21397850.570 8  21397850.398 8 112446435.254 8  87620644.045 6  87620602.047 8  83969756.161 8        50.800          41.400          48.100          52.700
G25  21438630.367 8  21438636.137 6  21438636.336 7  21438636.285 8 112660797.442 8  87787680.425 6  87787658.430 7  84129831.405 8        51.200          40.200          47.200          52.000
G29  23306674.211 7  23306679.773 4  23306679.297 6                 122477444.250 7  95436991.551 4  95436995.569 6                        43.600          28.600          40.400
G32  22904208.914 7  22904213.828 5  22904214.867 7  22904212.953 7 120362487.243 7  93788957.975 5  93788927.972 7  89881047.453 7        44.600          32.000          42.700          47.300															
> 2019 03 21 13 42 50.0000000  0 10
G02  22927111.484 7  22927113.488 5                                 120482879.621 7  93882749.970 5                                        44.500          32.700
G06  22633870.609 6  22633877.453 5  22633877.309 7  22633878.059 8 118941894.445 6  92681993.902 5  92681963.921 7  88820217.828 8        41.600          30.600          43.200          48.000
G12  20012347.133 8  20012349.891 7  20012350.078 8                 105165652.405 8  81947287.789 7  81947256.790 8                        52.800          43.400          50.500
G14  23734349.258 6  23734354.191 3                                 124724935.329 6  97188210.463 3                                        37.300          20.100
G17  25665184.898 6  25665189.391 3  25665189.070 5                 134871506.285 6 105094698.524 3 105094673.539 5                        40.300          20.900          35.400
G19  23223752.281 6  23223754.613 4                                 122041752.203 6  95097451.760 4                                        41.500          29.800
G24  21398320.602 8  21398326.738 6  21398326.953 8  21398326.730 8 112448938.363 8  87622594.515 6  87622552.523 8  83971625.358 8        50.700          41.400          48.300          53.100
G25  21438230.281 8  21438235.992 6  21438236.516 7  21438236.328 8 112658695.551 8  87786042.593 6  87786020.591 7  84128261.818 8        51.400          40.200          47.000          52.000
G29  23305987.523 7  23305993.199 4  23305992.035 6                 122473836.091 7  95434180.004 4  95434184.013 6                        43.400          27.900          39.900
G32  22904104.258 7  22904109.285 5  22904110.555 7  22904108.703 7 120361938.358 7  93788530.271 5  93788500.265 7  89880637.560 7        44.700          31.800          42.600          47.100
> 2019 03 21 13 42 51.0000000  0 10
G02  22926742.594 7  22926744.891 5                                 120480942.142 7  93881240.249 5                                        44.500          32.100
G06  22633773.859 6  22633780.215 5  22633779.828 7  22633780.941 8 118941384.200 6  92681596.315 5  92681566.322 7  88819836.797 8        41.800          30.400          43.100          48.300
G12  20012366.547 8  20012369.375 7  20012369.422 8                 105165754.777 8  81947367.560 7  81947336.554 8                        53.100          43.700          50.200
G14  23734007.953 6  23734012.328 3                                 124723138.391 6  97186810.254 3                                        36.900          20.100
G17  25665835.391 6  25665839.645 3  25665839.004 5                 134874923.865 6 105097361.574 3 105097336.605 5                        40.300          20.600          35.400
G19  23224395.742 6  23224397.938 4                                 122045133.168 6  95100086.270 4                                        41.400          29.800
G24  21398796.969 8  21398803.105 6  21398803.215 8  21398803.152 8 112451441.832 8  87624545.268 6  87624503.282 8  83973494.845 8        50.800          41.300          48.300          53.400
G25  21437830.563 8  21437836.168 6  21437836.469 7  21437836.348 8 112656593.972 8  87784404.996 6  87784383.010 7  84126692.445 8        51.800          40.400          47.000          51.900
G29  23305300.266 7  23305306.637 4  23305305.934 6                 122470228.114 7  95431368.583 4  95431372.613 6                        43.700          28.700          40.200
G32  22904000.383 7  22904004.871 5  22904005.895 7  22904004.391 7 120361390.094 7  93788103.061 5  93788073.058 7  89880228.148 7        44.800          32.100          42.700          47.000
> 2019 03 21 13 42 52.0000000  0 10
G02  22926374.641 7  22926376.090 5                                 120479005.119 7  93879730.877 5                                        44.900          32.400
G06  22633676.727 6  22633683.168 5  22633683.547 7  22633684.008 8 118940874.627 6  92681199.239 5  92681169.235 7  88819456.263 8        41.800          30.400          43.400          48.400
G12  20012386.211 8  20012389.043 7  20012388.945 8                 105165857.587 8  81947447.669 7  81947416.679 8                        52.900          43.800          49.800
G14  23733665.773 6  23733670.484 3                                 124721342.011 6  97185410.499 3                                        37.700          19.000
G17  25666485.188 6  25666490.027 3  25666488.895 5                 134878341.531 6 105100024.722 3 105099999.716 5                        39.500          21.300          35.800
G19  23225038.898 7  23225041.223 4                                 122048514.396 7  95102720.992 4                                        42.000          29.500
G24  21399273.422 8  21399279.555 6  21399279.680 8  21399279.664 8 112453945.746 8  87626496.372 6  87626454.386 8  83975364.654 8        50.300          41.400          48.300          52.800
G25  21437430.563 8  21437436.395 6  21437436.781 7  21437436.484 8 112654492.729 8  87782767.664 6  87782745.676 7  84125123.343 8        51.600          40.000          47.100          51.800
G29  23304613.742 7  23304620.109 4  23304619.344 6                 122466620.366 7  95428557.359 4  95428561.378 6                        43.000          27.200          40.200
G32  22903896.633 7  22903900.477 5  22903901.934 7  22903900.063 7 120360842.508 7  93787676.363 5  93787646.382 7  89879819.241 7        44.300          32.200          42.400          46.800
