     3.03           OBSERVATION DATA    M: Mixed            RINEX VERSION / TYPE
RTKCONV demo5 b34b                      20210513 164625 UTC PGM / RUN BY / DATE             
TEST                                                        MARKER NAME         
                                                            MARKER NUMBER       
GEODETIC                                                    MARKER TYPE         
                                                            OBSERVER / AGENCY   
                                                            REC # / TYPE / VERS 
                                                            ANT # / TYPE        
        0.0000        0.0000        0.0000                  APPROX POSITION XYZ 
        0.0000        0.0000        0.0000                  ANTENNA: DELTA H/E/N
G    8 C1C L1C D1C S1C C2X L2X D2X S2X                      SYS / # / OBS TYPES 
  2021    05    13    15    16   40.9920000     GPS         TIME OF FIRST OBS   
  2021    05    13    16    08   12.9930000     GPS         TIME OF LAST OBS    
G L1C                                                       SYS / PHASE SHIFT   
G L2X  0.00000                                              SYS / PHASE SHIFT   
  0                                                         GLONASS SLOT / FRQ #
 C1C    0.000 C1P    0.000 C2C    0.000 C2P    0.000        GLONASS COD/PHS/BIS 
                                                            END OF HEADER       
> 2021 05 13 15 16 40.9920000  0 10                     
G07  22420161.790 4 117818720.45917     -1834.468          27.000    22420107.373 8                     -1429.573          25.000  
G21  21119486.391 1 110983651.36113      2187.902          37.000                                                                  
G23  19362824.161 9                     -2098.989          14.000                                                                  
G10  18724036.047 8  98395596.65937       268.304          30.000                                                                  
G16  20080092.891 1 105521602.66111     -3620.061          45.000                                                                  
G08  19077551.324 8 100253208.17437      1721.585          30.000    19077532.564 1  78119280.48112      1340.107          39.000  
G15  22206715.864 9                     -1656.578          24.000                                                                  
G27  17879578.454 2  93957761.11815      -472.020          33.000    17879549.179 2  73213753.46014      -367.900          33.000  
G26  21936318.772 9                     -4160.030          22.000                                                                  
G30  22954183.671 1 120624994.69512      -208.125          40.000    22954157.737 1  93993431.86113      -162.006          36.000  
> 2021 05 13 15 16 41.9920000  0  9                     
G07  22420511.499 4 117820554.949 7     -1834.235          27.000    22420456.986 8                     -1430.586          25.000  
G21  21119070.000 1 110981463.178 3      2188.134          36.000                                                                  
G23  19363226.302 9                     -2130.239          12.000                                                                  
G10  18723984.945 8  98395328.93726       267.188          31.000                                                                  
G16  20080781.772 1 105525222.985 1     -3620.204          45.000                                                                  
G08  19077220.675 8 100251488.58228      1720.682          31.000    19077205.321 1  78117940.413 2      1339.960          39.000  
G27  17879668.279 2  93958232.947 4      -471.963          34.000    17879638.992 2  73214121.127 5      -367.192          31.000  
G26  21937111.421 9                     -4155.083          21.000                                                                  
G30  22954223.254 1 120625203.108 2      -208.336          40.000    22954197.429 1  93993594.276 3      -162.736          36.000  
> 2021 05 13 15 16 42.9920000  0  9                     
G07  22420860.142 4 117822389.864 7     -1834.970          28.000    22420807.782 8                     -1430.050          25.000  
G21  21118653.609 1 110979275.202 3      2187.951          37.000                                                                  
G23  19363628.440 9                     -2110.005          12.000                                                                  
G10  18723933.421 4  98395061.28716       266.452          31.000                                                                  
G16  20081470.647 1 105528843.663 1     -3620.889          45.000                                                                  
G08  19076893.100 8                      1719.463          29.000    19076878.092 1  78116600.575 2      1339.896          39.000  
G27  17879758.233 1  93958705.342 4      -473.425          35.000    17879728.802 2  73214489.240 6      -368.315          30.000  
G26  21937901.933 9                     -4158.520          23.000                                                                  
G30  22954262.899 1 120625411.952 2      -208.970          40.000    22954237.242 1  93993756.975 3      -163.083          37.000  
> 2021 05 13 15 16 43.9920000  0  9                     
G07  22421208.706 4 117824225.200 7     -1836.004          28.000    22421158.274 8                     -1430.566          25.000  
G21  21118237.288 1 110977087.331 2      2187.628          38.000                                                                  
G23  19364026.841 9                     -2092.729          11.000                                                                  
G10  18723883.175 4  98394794.681 8       265.974          30.000                                                                  
G16  20082159.682 1 105532464.589 1     -3621.114          45.000                                                                  
G08  19076566.526 8 100248049.49518      1719.246          28.000    19076550.912 1  78115260.917 2      1339.536          39.000  
G27  17879848.141 1  93959178.052 4      -473.332          35.000    17879818.758 2  73214857.573 7      -367.922          30.000  
G26  21938695.414 9                     -4155.968          22.000                                                                  
G30  22954302.750 1 120625621.264 2      -209.674          40.000    22954277.169 1  93993920.075 3      -163.310          37.000  
> 2021 05 13 15 16 44.9920000  0 10                     
G07  22421557.804 4                     -1836.124          27.000    22421507.739 8                     -1430.434          25.000  
G21  21117821.019 1 110974899.536 3      2187.916          38.000                                                                  
G23  19364423.426 9                     -2095.689          15.000                                                                  
G10  18723832.764 4  98394528.687 8       265.697          28.000                                                                  
G16  20082848.725 1 105536085.789 1     -3621.200          45.000                                                                  
G08  19076240.790 8 100246330.576 7      1719.286          29.000    19076223.781 1  78113921.475 2      1339.305          39.000  
G15  22207972.237 9                     -1663.474          25.000                                                                  
G27  17879938.106 1  93959651.246 4      -473.032          35.000    17879908.888 2  73215226.304 5      -368.943          32.000  
G26  21939486.615 9                     -4145.458          20.000                                                                  
G30  22954342.726 1 120625831.092 2      -209.743          41.000    22954317.186 1  93994083.596 3      -163.564          36.000  
> 2021 05 13 15 16 45.9920000  0 10                     
G07  22421906.924 2 117827896.927 7     -1836.414          28.000    22421857.833 8                     -1431.135          26.000  
G21  21117404.770 1 110972711.945 3      2187.634          38.000                                                                  
G23  19364820.779 9                     -2088.000          18.000                                                                  
G10  18723781.316 8                       265.478          26.000                                                                  
G16  20083537.883 1 105539707.295 1     -3621.859          45.000                                                                  
G08  19075913.633 8 100244611.894 7      1718.424          28.000    19075896.695 1  78112582.245 2      1338.910          38.000  
G15  22208284.816 9                     -1662.318          25.000                                                                  
G27  17880028.106 1  93960124.880 4      -473.984          34.000    17879999.095 2  73215595.379 4      -369.455          32.000  
G26  21940279.506 9                     -4160.532          19.000                                                                  
G30  22954382.707 1 120626041.457 2      -210.573          41.000    22954357.273 1  93994247.528 3      -164.711          37.000  
> 2021 05 13 15 16 46.9920000  0 10                     
G07  22422256.230 2                     -1836.021          27.000    22422206.724 8  91815188.22217     -1431.568          27.000  
G21  21116988.627 1 110970524.454 3      2187.610          37.000                                                                  
G23  19365218.377 9                     -2101.128          19.000                                                                  
G10  18723727.793 9                       270.718          24.000                                                                  
G16  20084227.096 1 105543329.069 1     -3621.909          45.000                                                                  
G08  19075585.120 8 100242893.402 7      1718.162          28.000    19075569.676 1  78111243.210 2      1338.809          38.000  
G15  22208603.146 9                     -1664.870          25.000                                                                  
G27  17880118.601 2  93960599.035 4      -474.865          31.000    17880089.352 2  73215964.802 5      -369.488          33.000  
G26  21941068.477 9                     -4155.160          16.000                                                                  
G30  22954422.813 1 120626252.320 2      -211.373          41.000    22954397.404 1  93994411.840 3      -165.054          37.000  
> 2021 05 13 15 16 47.9920000  0 10                     
G07  22422605.074 2                     -1837.098          28.000    22422556.705 8  91816619.303 7     -1431.642          27.000  
G21  21116572.343 1 110968336.799 3      2187.973          37.000                                                                  
G23  19365618.167 9                     -2093.008          17.000                                                                  
G10  18723675.700 9                       272.060          24.000                                                                  
G16  20084916.265 1 105546950.851 1     -3621.850          45.000                                                                  
G08  19075256.046 4 100241174.943 7      1718.540          28.000    19075242.689 1  78109904.201 3      1338.687          38.000  
G15  22208918.260 9                     -1665.555          25.000                                                                  
G27  17880209.100 2  93961073.251 5      -474.258          32.000    17880179.628 2  73216334.308 4      -368.905          33.000  
G26  21941859.785 9                     -4166.463          16.000                                                                  
G30  22954462.887 1 120626463.405 2      -211.440          41.000    22954437.535 1  93994576.310 3      -165.108          36.000  
> 2021 05 13 15 16 48.9920000  0 10                     
G07  22422954.236 2 117833407.015 8     -1837.080          28.000    22422907.021 8  91818050.754 7     -1431.581          27.000  
G21  21116155.983 1 110966149.302 4      2187.771          36.000                                                                  
G23  19366014.366 9                     -2105.402          17.000                                                                  
G10  18723627.210 9                       262.506          23.000                                                                  
G16  20085605.503 1 105550572.949 1     -3622.394          45.000                                                                  
G08  19074930.565 4 100239456.784 7      1717.452          29.000    19074915.744 1  78108565.404 2      1338.669          38.000  
G15  22209233.959 9                     -1666.875          25.000                                                                  
G27  17880299.779 2  93961547.974 5      -475.249          32.000    17880270.171 2  73216704.272 4      -370.374          34.000  
G26  21942650.700 9                     -4151.873          16.000                                                                  
G30  22954503.033 1 120626675.053 2      -211.840          41.000    22954477.841 1  93994741.209 3      -165.453          37.000  
> 2021 05 13 15 16 49.9920000  0 10                     
G07  22423303.602 2 117835244.655 8     -1837.678          28.000    22423257.391 8  91819482.704 8     -1431.994          26.000  
G21  21115739.765 1 110963962.246 3      2186.837          36.000                                                                  
G23  19366415.206 9                     -2094.385          16.000                                                                  
G10  18723580.457 9                       260.903          23.000                                                                  
G16  20086294.865 1 105554195.583 1     -3623.048          45.000                                                                  
G08  19074604.123 4 100237739.219 5      1717.201          30.000    19074588.838 1  78107227.049 2      1337.910          39.000  
G15  22209549.943 9                     -1667.382          25.000                                                                  
G27  17880390.269 2  93962023.444 6      -475.924          31.000    17880360.713 2  73217074.704 4      -370.820          34.000  
G26  21943441.454 9                     -4157.330          18.000                                                                  
G30  22954543.414 1 120626887.437 2      -212.541          41.000    22954518.273 1  93994906.733 3      -166.030          36.000  
> 2021 05 13 15 16 50.9920000  0 10                     
G07  22423652.971 2 117837082.859 7     -1838.314          28.000    22423607.281 8  91820915.073 8     -1432.081          27.000  
G21  21115323.596 1 110961775.451 3      2186.128          36.000                                                                  
G23  19366816.195 9                     -2111.119          16.000                                                                  
G10  18723532.413 9                       261.655          20.000                                                                  
G16  20086984.328 1 105557818.629 1     -3623.355          45.000                                                                  
G08  19074277.183 4 100236022.048 7      1717.029          29.000    19074262.138 1  78105888.952 2      1337.957          39.000  
G15  22209865.339 9                     -1668.369          24.000                                                                  
G27  17880480.643 4  93962499.319 6      -475.690          31.000    17880451.549 2  73217445.588 4      -371.179          34.000  
G26  21944233.488 9                     -4152.775          18.000                                                                  
G30  22954583.878 1 120627100.492 2      -213.393          40.000    22954558.815 1  93995072.748 3      -166.698          37.000  
> 2021 05 13 15 16 51.9920000  0 10                     
G07  22424002.459 4 117838921.822 8     -1840.031          29.000    22423958.963 8  91822348.088 8     -1433.726          26.000  
G21  21114907.543 1 110959589.113 3      2185.827          36.000                                                                  
G23  19367214.398 9                     -2079.869          13.000                                                                  
G10  18723483.539 9                       258.982          19.000                                                                  
G16  20087673.903 1 105561442.352 1     -3623.975          45.000                                                                  
G08  19073950.453 2 100234305.467 7      1716.224          28.000    19073935.471 1  78104551.424 2      1337.144          39.000  
G15  22210182.716 9                     -1674.328          23.000                                                                  
G27  17880571.560 2  93962976.168 6      -476.924          32.000    17880542.295 2  73217817.106 5      -371.232          34.000  
G26  21945023.190 9                     -4155.460          17.000                                                                  
G30  22954624.512 1 120627314.439 2      -214.420          40.000    22954599.606 1  93995239.428 3      -166.606          37.000  
> 2021 05 13 15 16 52.9920000  0  9                     
G07  22424352.316 2 117840761.258 8     -1840.092          28.000    22424309.980 8                     -1433.082          26.000  
G21  21114491.570 1 110957403.081 3      2185.573          36.000                                                                  
G10  18723437.569 9                       236.581          15.000                                                                  
G16  20088363.631 1 105565066.484 1     -3624.611          45.000                                                                  
G08  19073623.960 2 100232589.361 7      1715.666          28.000    19073608.929 1  78103214.161 2      1336.677          39.000  
G15  22210500.737 9                     -1668.796          23.000                                                                  
G27  17880662.391 2  93963453.534 5      -478.127          32.000    17880633.163 2  73218189.081 4      -372.324          34.000  
G26  21945816.675 9                     -4155.777          18.000                                                                  
G30  22954665.237 1 120627529.020 2      -215.342          40.000    22954640.455 1  93995406.648 3      -167.580          37.000  
> 2021 05 13 15 16 53.9920000  0 12                     
G07  22424702.409 2 117842601.351 7     -1840.334          28.000    22424660.157 8                     -1434.088          26.000  
G21  21114075.710 1 110955217.348 3      2185.653          37.000                                                                  
G23  19368006.867 9                     -2104.597          10.000                                                                  
G10  18723388.336 9                       259.937          22.000                                                                  
G16  20089053.444 1 105568691.091 1     -3624.891          45.000                                                                  
G08  19073297.415 2 100230873.698 7      1714.829          29.000    19073282.431 1  78101877.295 2      1336.569          39.000  
G15  22210818.518 9                     -1670.840          23.000                                                                  
G18  21495319.333 9                     -3684.765          19.000                                                                  
G27  17880753.309 2  93963931.570 5      -478.795          32.000    17880724.194 2  73218561.531 4      -373.035          34.000  
G26  21946609.292 9                     -4159.180          18.000                                                                  
G13  23282442.337 9                     -2078.779          11.000                                                                  
G30  22954706.063 1 120627744.299 2      -215.853          39.000    22954681.456 1  93995574.397 3      -168.138          37.000  
> 2021 05 13 15 16 54.9920000  0 11                     
G07  22425052.667 2 117844442.073 7     -1841.036          29.000    22425010.342 8                     -1434.534          26.000  
G21  21113659.882 1 110953032.025 3      2185.198          37.000                                                                  
G10  18723336.661 9                       260.550          24.000                                                                  
G16  20089743.278 1 105572316.249 1     -3625.355          45.000                                                                  
G08  19072971.060 2 100229158.552 8      1715.000          28.000    19072956.067 1  78100540.871 3      1336.085          39.000  
G15  22211135.618 9                     -1672.605          23.000                                                                  
G18  21496018.832 9                     -3684.765          19.000                                                                  
G27  17880844.271 2  93964410.234 4      -477.791          32.000    17880815.450 2  73218934.524 4      -373.381          34.000  
G26  21947406.111 9                     -4156.868          17.000                                                                  
G13  23282839.801 9                     -2080.326          14.000                                                                  
G30  22954747.057 1 120627960.359 2      -216.290          40.000    22954722.535 1  93995742.757 3      -168.628          37.000  
> 2021 05 13 15 16 55.9920000  0 11                     
G07  22425402.847 2 117846283.285 7     -1841.447          29.000    22425360.441 8  91828084.345 8     -1435.386          26.000  
G21  21113244.014 1 110950846.937 3      2185.365          37.000                                                                  
G10  18723287.635 8                       257.903          25.000                                                                  
G16  20090433.156 1 105575941.772 1     -3625.596          44.000                                                                  
G08  19072644.658 2                      1714.869          27.000    19072629.840 1  78099204.668 2      1335.936          39.000  
G15  22211453.312 9                     -1670.593          23.000                                                                  
G18  21496723.529 9                     -3684.765          19.000                                                                  
G27  17880935.362 2  93964889.483 4      -479.217          33.000    17880906.529 2  73219307.930 4      -373.593          33.000  
G26  21948198.891 9                     -4163.824          17.000                                                                  
G13  23283234.632 9                     -2072.405          15.000                                                                  
G30  22954788.173 1 120628177.006 2      -216.947          40.000    22954763.813 1  93995911.572 3      -168.741          38.000  
> 2021 05 13 15 16 56.9920000  0 11                     
G07  22425752.857 4 117848124.813 8     -1844.031          29.000    22425711.179 8                     -1434.909          25.000  
G21  21112828.338 1 110948661.839 3      2184.937          38.000                                                                  
G10  18723234.679 9                       260.449          25.000                                                                  
G16  20091123.027 1 105579567.433 1     -3625.771          44.000                                                                  
G08  19072318.585 2                      1713.841          27.000    19072303.682 1  78097868.583 2      1335.580          39.000  
G15  22211771.351 9                     -1670.163          23.000                                                                  
G18  21497424.136 9                     -3684.765          20.000                                                                  
G27  17881026.910 2  93965369.011 5      -479.568          33.000    17880997.827 2  73219681.554 4      -373.476          33.000  
G26  21948991.987 9                     -4161.552          17.000                                                                  
G13  23283631.163 9                     -2075.429          16.000                                                                  
G30  22954829.346 1 120628394.033 2      -217.403          40.000    22954805.108 1  93996080.702 3      -169.281          38.000  
> 2021 05 13 15 16 57.9920000  0 10                     
G07  22426103.041 2 117849966.593 7     -1842.549          29.000    22426061.762 8                     -1435.831          25.000  
G21  21112412.504 1 110946476.832 2      2185.022          38.000                                                                  
G10  18723184.381 9                       257.712          22.000                                                                  
G16  20091813.031 1 105583193.344 1     -3626.096          45.000                                                                  
G08  19071992.331 2                      1713.728          26.000    19071977.458 1  78096532.663 2      1335.487          39.000  
G18  21498124.207 9                     -3684.765          20.000                                                                  
G27  17881118.043 2  93965848.854 5      -479.905          31.000    17881089.343 2  73220055.542 4      -373.859          34.000  
G26  21949786.733 9                     -4159.618          16.000                                                                  
G13  23284028.795 9                     -2076.568          16.000                                                                  
G30  22954870.696 1 120628611.506 2      -217.428          40.000    22954846.601 1  93996250.171 3      -169.735          38.000  
> 2021 05 13 15 16 58.9920000  0  9                     
G07  22426453.523 2 117851808.474 8     -1841.845          28.000    22426412.811 8                     -1435.510          24.000  
G21  21111996.755 1 110944291.787 2      2184.995          39.000                                                                  
G10  18723131.239 9                       256.648          21.000                                                                  
G16  20092502.985 1 105586819.398 1     -3625.981          45.000                                                                  
G08  19071666.144 2                      1714.295          26.000    19071651.251 1  78095196.846 2      1335.721          39.000  
G27  17881209.415 2  93966329.107 5      -480.423          31.000    17881180.639 2  73220429.708 4      -374.191          33.000  
G26  21950579.593 9                     -4162.193          19.000                                                                  
G13  23284425.619 9                     -2079.373          15.000                                                                  
G30  22954912.154 1 120628829.384 2      -218.050          39.000    22954888.085 1  93996419.945 2      -169.532          37.000  
> 2021 05 13 15 16 59.9920000  0 10                     
G07  22426803.914 2 117853650.751 7     -1842.284          28.000    22426763.246 9                     -1435.220          23.000  
G21  21111580.978 1 110942106.667 2      2185.582          39.000                                                                  
G10  18723080.937 9                       263.359          19.000                                                                  
G16  20093193.088 1 105590445.512 1     -3626.193          44.000                                                                  
G08  19071339.921 2                      1713.499          26.000    19071324.985 1  78093861.098 2      1335.768          38.000  
G15  22212720.224 9                     -1666.969          24.000                                                                  
G27  17881300.850 2  93966809.520 6      -481.578          31.000    17881272.046 2  73220804.063 4      -374.219          34.000  
G26  21951373.255 9                     -4162.469          20.000                                                                  
G13  23284820.966 9                     -2075.867          16.000                                                                  
G30  22954953.600 1 120629047.539 2      -218.082          39.000    22954929.643 1  93996589.931 3      -169.972          38.000  
> 2021 05 13 15 17 00.9920000  0  9                     
G07  22427154.309 2 117855493.228 7     -1842.579          28.000    22427112.121 9                     -1429.665          23.000  
G21  21111165.148 1 110939921.584 2      2184.946          38.000                                                                  
G10  18723029.146 9                       254.519          22.000                                                                  
G16  20093883.149 1 105594071.777 1     -3626.550          44.000                                                                  
G08  19071013.998 2 100218872.039 8      1713.800          27.000    19070998.739 1  78092525.420 2      1335.587          38.000  
G15  22213052.314 9                     -1666.969          23.000                                                                  
G27  17881392.238 2  93967290.205 5      -480.180          32.000    17881363.759 2  73221178.643 4      -374.396          34.000  
G13  23285217.699 9                     -2080.188          16.000                                                                  
G30  22954995.159 1 120629266.085 2      -219.080          39.000    22954971.242 1  93996760.217 3      -170.817          37.000  
> 2021 05 13 15 17 01.9920000  0 10                     
G07  22427504.921 2 117857336.092 7     -1843.252          28.000    22427462.704 9                     -1434.223          23.000  
G21  21110749.240 1 110937736.531 2      2184.961          39.000                                                                  
G10  18722976.491 9                       255.144          24.000                                                                  
G16  20094573.184 1 105597698.249 1     -3626.589          44.000                                                                  
G08  19070688.160 2                      1714.156          27.000    19070672.554 1  78091189.897 2      1335.886          38.000  
G15  22213366.236 9                     -1666.969          23.000                                                                  
G27  17881483.603 2  93967771.301 5      -480.967          32.000    17881455.407 2  73221553.529 4      -374.750          34.000  
G26  21952964.083 9                     -4161.227          18.000                                                                  
G13  23285615.817 9                     -2077.373          16.000                                                                  
G30  22955036.745 1 120629485.062 2      -219.030          40.000    22955012.849 1  93996930.833 3      -170.709          37.000  
> 2021 05 13 15 17 02.9920000  0 10                     
G07  22427855.327 4 117859179.285 8     -1843.861          28.000    22427812.565 9                     -1430.390          21.000  
G21  21110333.424 1 110935551.616 2      2184.685          39.000                                                                  
G10  18722925.941 9                       254.755          25.000                                                                  
G16  20095263.434 1 105601325.031 1     -3627.255          44.000                                                                  
G08  19070362.094 2                      1713.048          27.000    19070346.418 1  78089854.627 2      1335.247          38.000  
G15  22213684.113 9                     -1666.969          23.000                                                                  
G27  17881575.161 2  93968252.847 5      -482.031          32.000    17881547.000 2  73221928.798 4      -376.170          33.000  
G26  21953756.081 9                     -4159.250          17.000                                                                  
G13  23286013.126 9                     -2080.748          17.000                                                                  
G30  22955078.387 1 120629704.555 2      -219.988          40.000    22955054.684 1  93997101.876 3      -171.470          37.000  
> 2021 05 13 15 17 03.9920000  0  9                     
G07  22428206.136 2                     -1843.706          26.000    22428162.235 9                     -1437.781          21.000  
G21  21109917.826 1 110933367.027 2      2184.816          38.000                                                                  
G10  18722876.740 9                       256.395          24.000                                                                  
G16  20095953.671 1 105604952.266 1     -3627.434          45.000                                                                  
G08  19070036.139 2 100213731.395 7      1712.827          30.000    19070020.463 1  78088519.702 2      1335.023          38.000  
G27  17881666.918 2  93968735.026 5      -482.626          31.000    17881638.652 2  73222304.477 4      -375.957          34.000  
G26  21954545.842 9                     -4166.042          19.000                                                                  
G13  23286410.334 9                     -2081.198          17.000                                                                  
G30  22955120.312 1 120629924.742 2      -220.283          39.000    22955096.492 1  93997273.451 3      -171.919          37.000  
> 2021 05 13 15 17 04.9920000  0  9                     
G07  22428556.745 2                     -1844.361          27.000    22428513.741 9                     -1446.385          20.000  
G21  21109502.065 1 110931182.536 2      2184.571          38.000                                                                  
G10  18722827.422 9                       258.525          22.000                                                                  
G16  20096643.929 1 105608579.771 1     -3627.550          45.000                                                                  
G08  19069710.396 2 100212018.478 6      1712.683          29.000    19069694.487 1  78087184.983 3      1334.287          38.000  
G27  17881758.478 2  93969217.594 6      -482.869          31.000    17881730.381 2  73222680.541 4      -376.926          34.000  
G26  21955339.197 9                     -4167.254          19.000                                                                  
G13  23286806.712 9                     -2084.816          16.000                                                                  
G30  22955162.292 1 120630145.412 2      -220.519          39.000    22955138.492 1  93997445.420 3      -172.319          38.000  
> 2021 05 13 15 17 05.9920000  0  9                     
G07  22428907.819 2                     -1844.611          27.000    22428865.256 9                     -1452.206          19.000  
G21  21109086.475 1 110928998.535 3      2183.429          37.000                                                                  
G10  18722778.729 9                       247.572          19.000                                                                  
G16  20097334.374 1 105612207.863 1     -3628.488          45.000                                                                  
G08  19069384.479 2 100210306.111 7      1712.121          29.000    19069368.597 1  78085850.656 3      1334.156          38.000  
G27  17881850.332 2  93969700.883 5      -483.816          31.000    17881822.385 2  73223057.126 4      -377.093          34.000  
G26  21956132.285 9                     -4155.455          20.000                                                                  
G13  23287203.895 9                     -2096.395          15.000                                                                  
G30  22955204.370 1 120630366.914 2      -222.112          39.000    22955180.637 1  93997617.988 3      -172.660          37.000  
> 2021 05 13 15 17 06.9920000  0  9                     
G07  22429258.765 2                     -1846.133          27.000    22429217.329 9                     -1438.798          18.000  
G21  21108671.072 1 110926814.965 3      2183.403          38.000                                                                  
G10  18722731.793 9                       255.698          20.000                                                                  
G16  20098024.967 1 105615836.554 1     -3628.828          45.000                                                                  
G08  19069058.585 2 100208594.459 7      1711.306          27.000    19069042.766 1  78084516.831 3      1333.774          38.000  
G27  17881942.472 2  93970184.959 7      -483.618          31.000    17881914.545 2  73223434.347 4      -377.905          34.000  
G26  21956925.040 9                     -4158.136          21.000                                                                  
G13  23287602.062 9                     -2088.176          14.000                                                                  
G30  22955246.671 1 120630589.256 2      -222.484          39.000    22955222.935 1  93997791.252 3      -173.628          37.000  
> 2021 05 13 15 17 07.9920000  0 10                     
G07  22429609.732 2 117868403.851 7     -1846.604          27.000    22429568.160 9                     -1438.335          17.000  
G21  21108255.643 1 110924631.904 3      2182.744          38.000                                                                  
G23  19373623.995 9                     -2103.617          10.000                                                                  
G10  18722686.839 9                       244.321          22.000                                                                  
G16  20098715.695 1 105619465.954 1     -3629.920          44.000                                                                  
G08  19068732.742 2                      1711.466          26.000    19068717.018 1  78083183.531 2      1332.908          38.000  
G27  17882034.556 2  93970669.932 6      -485.348          30.000    17882007.056 2  73223812.190 4      -377.965          34.000  
G26  21957718.036 9                     -4161.524          20.000                                                                  
G13  23287998.335 9                     -2078.133          13.000                                                                  
G30  22955289.038 1 120630812.503 2      -223.634          39.000    22955265.460 1  93997965.218 3      -174.426          37.000  
> 2021 05 13 15 17 08.9920000  0 10                     
G07  22429961.010 2                     -1846.458          26.000    22429918.543 9                     -1439.021          15.000  
G21  21107840.356 1 110922449.371 3      2182.249          39.000                                                                  
G23  19374025.136 9                     -2104.501          11.000                                                                  
G10  18722640.934 9                       274.989          23.000                                                                  
G16  20099406.354 1 105623095.958 1     -3630.084          44.000                                                                  
G08  19068407.306 2                      1710.335          26.000    19068391.561 1  78081850.702 2      1332.909          38.000  
G27  17882126.872 2  93971155.640 5      -486.016          30.000    17882099.441 2  73224190.683 4      -378.967          34.000  
G26  21958511.490 9                     -4161.993          21.000                                                                  
G13  23288393.453 9                     -2082.949          12.000                                                                  
G30  22955331.648 1 120631036.612 2      -224.433          40.000    22955308.099 1  93998139.858 3      -174.985          37.000  
> 2021 05 13 15 17 09.9920000  0  9                     
G07  22430312.320 9                     -1842.109          23.000    22430269.251 9                     -1434.812          15.000  
G21  21107425.315 1 110920267.218 2      2182.269          39.000                                                                  
G10  18722593.166 9                       249.236          22.000                                                                  
G16  20100097.131 1 105626726.562 1     -3630.615          45.000                                                                  
G08  19068081.700 2                      1710.123          26.000    19068066.169 1  78080518.305 2      1332.279          38.000  
G27  17882219.403 2  93971642.078 6      -487.125          30.000    17882192.027 2  73224569.739 4      -379.866          34.000  
G26  21959306.238 9                     -4159.285          21.000                                                                  
G13  23288787.942 9                     -2071.367          10.000                                                                  
G30  22955374.450 1 120631261.516 2      -225.052          40.000    22955350.936 1  93998315.098 3      -175.443          37.000  
> 2021 05 13 15 17 10.9920000  0  9                     
G07  22430665.975 9                     -1845.551          21.000    22430619.559 9                     -1448.171          16.000  
G21  21107010.091 1 110918085.186 2      2182.197          39.000                                                                  
G10  18722548.473 9                       251.644          22.000                                                                  
G16  20100788.176 1 105630357.405 1     -3631.085          45.000                                                                  
G08  19067756.446 2                      1708.561          27.000    19067740.788 1  78079186.113 3      1332.228          37.000  
G27  17882309.221 8  93972168.92337      -486.727          30.000    17882284.737 2  73224949.090 4      -380.123          34.000  
G26  21960100.315 9                     -4156.978          21.000                                                                  
G13  23289185.871 9                     -2079.135          13.000                                                                  
G30  22955417.201 1 120631486.920 2      -225.685          40.000    22955393.848 1  93998490.706 3      -175.644          37.000  
> 2021 05 13 15 17 11.9920000  0 10                     
G21  21106594.912 1 110915903.218 2      2181.493          39.000                                                                  
G23  19375232.891 9                     -2094.176          12.000                                                                  
G10  18722503.244 9                       251.397          23.000                                                                  
G16  20101479.267 1 105633988.454 1     -3631.339          45.000                                                                  
G08  19067431.316 2 100200043.801 7      1710.658          29.000    19067415.431 1  78077854.068 3      1331.948          37.000  
G27  17882403.246 8  93972656.13327      -487.192          29.000    17882377.445 2  73225328.711 5      -379.810          33.000  
G26  21960894.732 9                     -4163.213          20.000                                                                  
G13  23289580.865 9                     -2081.601          14.000                                                                  
G30  22955460.118 1 120631712.748 2      -226.300          39.000    22955436.843 1  93998666.704 3      -176.613          37.000  
G07                                                                  22430970.294 9                     -1437.157          18.000  
> 2021 05 13 15 17 12.9920000  0 10                     
G21  21106179.713 1 110913721.300 2      2181.945          39.000                                                                  
G23  19375634.445 9                     -2116.033          13.000                                                                  
G10  18722457.797 9                       248.503          23.000                                                                  
G16  20102170.240 1 105637619.725 1     -3631.281          45.000                                                                  
G08  19067106.034 2 100198334.583 6      1709.599          29.000    19067090.189 1  78076522.191 3      1331.826          37.000  
G27  17882495.092 8  93973143.690 7      -487.810          28.000    17882470.229 2  73225708.650 5      -379.779          33.000  
G26  21961689.224 9                     -4149.267          20.000                                                                  
G13  23289980.349 9                     -2089.086          15.000                                                                  
G30  22955503.117 1 120631939.023 2      -226.650          39.000    22955480.031 1  93998842.993 3      -176.134          37.000  
G07                                                                  22431321.144 9                     -1440.288          19.000  
> 2021 05 13 15 17 13.9920000  0 10                     
G21  21105764.630 1 110911539.340 2      2181.944          39.000                                                                  
G23  19376039.135 9                     -2108.483          16.000                                                                  
G10  18722410.827 9                       252.309          24.000                                                                  
G16  20102861.223 1 105641251.074 1     -3631.464          45.000                                                                  
G08  19066781.217 2 100196625.447 5      1708.312          30.000    19066764.829 1  78075190.313 3      1332.307          38.000  
G27  17882586.324 4  93973631.495 7      -487.707          28.000    17882563.007 2  73226088.791 5      -381.043          33.000  
G26  21962482.151 9                     -4163.489          18.000                                                                  
G13  23290378.166 9                     -2088.048          15.000                                                                  
G30  22955546.269 1 120632165.585 2      -226.726          39.000    22955523.203 1  93999019.560 3      -176.767          37.000  
G07                                                                  22431671.782 9                     -1445.258          20.000  
> 2021 05 13 15 17 14.9920000  0 10                     
G21  21105349.418 1 110909357.197 2      2182.115          39.000                                                                  
G23  19376441.531 9                     -2130.497          15.000                                                                  
G10  18722364.408 9                       242.681          25.000                                                                  
G16  20103552.114 1 105644882.422 1     -3631.415          44.000                                                                  
G08  19066456.323 2 100194916.280 6      1708.425          31.000    19066439.612 1  78073858.514 3      1331.379          37.000  
G27  17882680.016 4  93974119.555 6      -488.414          29.000    17882655.817 2  73226469.004 5      -379.898          33.000  
G26  21963273.740 9                     -4154.287          19.000                                                                  
G13  23290777.846 9                     -2084.594          16.000                                                                  
G30  22955589.411 1 120632392.407 2      -226.933          39.000    22955566.353 1  93999196.309 2      -177.125          37.000  
G07                                                                  22432023.973 9                     -1445.820          21.000  
> 2021 05 13 15 17 15.9920000  0 10                     
G21  21104934.329 1 110907175.421 2      2181.653          40.000                                                                  
G23  19376846.639 9                     -2117.024          14.000                                                                  
G10  18722314.655 9                       247.664          25.000                                                                  
G16  20104243.169 1 105648514.278 1     -3632.319          44.000                                                                  
G08  19066131.323 2 100193207.539 6      1708.364          31.000    19066114.424 1  78072527.028 3      1331.304          37.000  
G27  17882773.067 4  93974608.115 6      -488.590          29.000    17882748.875 2  73226849.771 5      -380.879          33.000  
G26  21964065.201 9                     -4159.808          19.000                                                                  
G13  23291172.697 9                     -2065.964          15.000                                                                  
G30  22955632.697 1 120632619.931 2      -228.036          39.000    22955609.687 1  93999373.610 3      -177.879          37.000  
G07                                                                  22432376.562 9                     -1442.698          22.000  
> 2021 05 13 15 17 16.9920000  0 10                     
G21  21104519.384 1 110904994.009 2      2181.278          40.000                                                                  
G23  19377248.469 9                     -2107.066          14.000                                                                  
G10  18722265.764 9                       246.648          24.000                                                                  
G16  20104934.471 1 105652146.619 1     -3632.511          44.000                                                                  
G08  19065806.261 2 100191499.382 6      1708.078          30.000    19065789.346 1  78071195.989 3      1330.768          38.000  
G27  17882865.528 4  93975097.526 8      -491.075          29.000    17882841.945 2  73227231.030 4      -381.442          33.000  
G26  21964856.757 9                     -4162.511          19.000                                                                  
G13  23291568.456 9                     -2080.563          15.000                                                                  
G30  22955676.195 1 120632848.217 2      -228.503          39.000    22955653.097 1  93999551.452 3      -177.812          37.000  
G07                                                                  22432729.995 9                     -1443.690          22.000  
> 2021 05 13 15 17 17.9920000  0  9                     
G21  21104104.411 1 110902812.915 2      2180.704          40.000                                                                  
G23  19377648.322 9                     -2110.875          14.000                                                                  
G10  18722214.686 9                       243.227          24.000                                                                  
G16  20105625.691 1 105655779.425 1     -3632.971          44.000                                                                  
G08  19065481.166 2 100189791.581 5      1707.775          29.000    19065464.280 1  78069865.266 3      1330.643          38.000  
G27  17882958.784 4  93975587.343 7      -490.103          29.000    17882935.139 2  73227612.794 4      -382.056          34.000  
G13  23291966.338 9                     -2068.897          14.000                                                                  
G30  22955719.637 1 120633077.162 2      -229.469          39.000    22955696.682 1  93999729.902 3      -178.857          37.000  
G07                                                                  22433083.537 9                     -1442.773          22.000  
> 2021 05 13 15 17 18.9920000  0 10                     
G21  21103689.591 1 110900632.121 2      2180.504          40.000                                                                  
G23  19378050.379 9                     -2121.413          15.000                                                                  
G10  18722165.777 9                       245.928          24.000                                                                  
G16  20106317.129 1 105659412.707 1     -3633.558          45.000                                                                  
G08  19065156.002 2 100188084.328 6      1706.673          28.000    19065139.402 1  78068534.920 3      1329.878          38.000  
G27  17883052.222 4  93976077.926 7      -490.707          28.000    17883028.515 2  73227995.008 4      -382.456          34.000  
G26  21966441.159 9                     -4157.426          18.000                                                                  
G13  23292364.509 9                     -2100.147          11.000                                                                  
G30  22955763.289 1 120633306.809 2      -229.796          39.000    22955740.487 1  93999908.849 3      -179.382          37.000  
G07                                                                  22433436.684 9                     -1448.526          22.000  
> 2021 05 13 15 17 19.9920000  0  9                     
G21  21103274.757 1 110898451.805 2      2179.892          41.000                                                                  
G23  19378449.722 9                     -2109.028          15.000                                                                  
G10  18722119.997 9                       244.344          23.000                                                                  
G16  20107008.641 1 105663046.576 1     -3634.101          44.000                                                                  
G08  19064830.941 2 100186377.668 6      1706.105          28.000    19064814.708 1  78067204.999 3      1329.894          38.000  
G27  17883146.075 4  93976569.222 8      -491.385          27.000    17883122.031 2  73228377.816 4      -383.300          34.000  
G26  21967235.522 9                     -4158.893          18.000                                                                  
G30  22955807.143 1 120633537.323 2      -231.082          39.000    22955784.278 1  94000088.447 3      -179.766          37.000  
G07                                                                  22433789.525 9                     -1444.461          22.000  
> 2021 05 13 15 17 20.9920000  0  9                     
G21  21102860.085 1 110896272.036 2      2179.448          40.000                                                                  
G23  19378850.527 9                     -2116.344          15.000                                                                  
G10  18722074.917 9                       241.271          23.000                                                                  
G16  20107700.238 1 105666681.164 1     -3634.852          44.000                                                                  
G08  19064506.227 2 100184671.569 7      1705.895          29.000    19064490.026 1  78065875.650 3      1329.232          38.000  
G27  17883239.967 4                      -492.275          27.000    17883215.820 2  73228761.324 4      -383.873          34.000  
G26  21968029.784 9                     -4153.540          18.000                                                                  
G30  22955851.160 1 120633768.756 2      -232.288          39.000    22955828.286 1  94000268.783 2      -180.553          38.000  
G07                                                                  22434143.343 9                     -1441.536          21.000  
> 2021 05 13 15 17 21.9920000  0  9                     
G21  21102445.451 1 110894093.029 2      2178.914          40.000                                                                  
G23  19379252.166 9                     -2116.058          15.000                                                                  
G10  18722031.503 9                       239.637          25.000                                                                  
G16  20108392.015 1 105670316.689 1     -3635.799          44.000                                                                  
G08  19064181.665 4 100182966.499 8      1704.344          30.000    19064165.461 1  78064546.995 3      1328.685          38.000  
G27  17883333.616 4  93977554.596 8      -493.744          27.000    17883309.539 2  73229145.680 5      -384.807          34.000  
G26  21968824.562 9                     -4149.906          18.000                                                                  
G30  22955895.373 1 120634001.310 2      -233.184          39.000    22955872.505 1  94000450.023 3      -181.454          38.000  
G07                                                                  22434497.004 9                     -1443.682          21.000  
> 2021 05 13 15 17 22.9920000  0  9                     
G21  21102030.849 1 110891914.311 2      2178.149          40.000                                                                  
G23  19379655.625 9                     -2122.669          14.000                                                                  
G10  18721986.892 9                       239.783          23.000                                                                  
G16  20109083.855 1 105673952.603 1     -3636.130          44.000                                                                  
G08  19063857.145 4 100181261.763 7      1704.137          30.000    19063840.982 1  78063218.664 2      1328.307          38.000  
G27  17883427.444 2  93978048.399 7      -494.286          27.000    17883403.608 2  73229530.461 4      -384.961          34.000  
G26  21969616.500 9                     -4164.743          17.000                                                                  
G30  22955939.762 1 120634234.555 2      -233.879          38.000    22955916.902 1  94000631.770 2      -182.050          38.000  
G07                                                                  22434848.315 9                     -1439.851          20.000  
> 2021 05 13 15 17 23.9920000  0  9                     
G21  21101616.162 1 110889735.800 2      2178.578          39.000                                                                  
G23  19380058.595 9                     -2114.621          12.000                                                                  
G10  18721942.698 9                       241.181          23.000                                                                  
G16  20109775.827 1 105677588.882 1     -3636.322          44.000                                                                  
G08  19063532.893 2 100179557.519 8      1704.105          29.000    19063516.670 1  78061890.634 3      1328.003          38.000  
G27  17883521.536 2  93978542.722 7      -494.317          28.000    17883497.650 2  73229915.641 5      -384.760          33.000  
